{
"type": "FeatureCollection",
"crs": { "type": "name", "properties": { "name": "urn:ogc:def:crs:OGC:1.3:CRS84" } },
"features": [
{ "type": "Feature", "properties": { "Name": "Abu ", "Country": "            Japan          ", "Type": "            Shield          ", "lat": 34.5, "lng": 131.6, "Elevation": 641.0 }, "geometry": { "type": "Point", "coordinates": [ 131.6, 34.5 ] } },
{ "type": "Feature", "properties": { "Name": "Acamarachi ", "Country": "            Chile          ", "Type": "            Stratovolcano          ", "lat": -23.3, "lng": -67.62, "Elevation": 6046.0 }, "geometry": { "type": "Point", "coordinates": [ -67.62, -23.3 ] } },
{ "type": "Feature", "properties": { "Name": "Acatenango ", "Country": "            Guatemala          ", "Type": "            Stratovolcano          ", "lat": 14.5, "lng": -90.88, "Elevation": 3976.0 }, "geometry": { "type": "Point", "coordinates": [ -90.88, 14.5 ] } },
{ "type": "Feature", "properties": { "Name": "Acigöl-Nevsehir ", "Country": "            Turkey          ", "Type": "            Caldera          ", "lat": 38.57, "lng": 34.52, "Elevation": 1689.0 }, "geometry": { "type": "Point", "coordinates": [ 34.52, 38.57 ] } },
{ "type": "Feature", "properties": { "Name": "Adams ", "Country": "            USA          ", "Type": "            Stratovolcano          ", "lat": 46.21, "lng": -121.49, "Elevation": 3742.0 }, "geometry": { "type": "Point", "coordinates": [ -121.49, 46.21 ] } },
{ "type": "Feature", "properties": { "Name": "Adams Seamount ", "Country": "            Pacific Ocean          ", "Type": "            Submarine          ", "lat": -25.37, "lng": -129.27, "Elevation": -39.0 }, "geometry": { "type": "Point", "coordinates": [ -129.27, -25.37 ] } },
{ "type": "Feature", "properties": { "Name": "Adatara ", "Country": "            Japan          ", "Type": "            Stratovolcano          ", "lat": 37.64, "lng": 140.29, "Elevation": 1718.0 }, "geometry": { "type": "Point", "coordinates": [ 140.29, 37.64 ] } },
{ "type": "Feature", "properties": { "Name": "Adwa ", "Country": "            Ethiopia          ", "Type": "            Stratovolcano          ", "lat": 10.07, "lng": 40.84, "Elevation": 1733.0 }, "geometry": { "type": "Point", "coordinates": [ 40.84, 10.07 ] } },
{ "type": "Feature", "properties": { "Name": "Afderà ", "Country": "            Ethiopia          ", "Type": "            Stratovolcano          ", "lat": 13.08, "lng": 40.85, "Elevation": 1295.0 }, "geometry": { "type": "Point", "coordinates": [ 40.85, 13.08 ] } },
{ "type": "Feature", "properties": { "Name": "Agrigan ", "Country": "            Mariana Islands          ", "Type": "            Stratovolcano          ", "lat": 18.77, "lng": 145.67, "Elevation": 965.0 }, "geometry": { "type": "Point", "coordinates": [ 145.67, 18.77 ] } },
{ "type": "Feature", "properties": { "Name": "Agua ", "Country": "            Guatemala          ", "Type": "            Stratovolcano          ", "lat": 14.47, "lng": -90.74, "Elevation": 3760.0 }, "geometry": { "type": "Point", "coordinates": [ -90.74, 14.47 ] } },
{ "type": "Feature", "properties": { "Name": "Agua de Pau ", "Country": "            Azores          ", "Type": "            Stratovolcano          ", "lat": 37.77, "lng": -25.47, "Elevation": 947.0 }, "geometry": { "type": "Point", "coordinates": [ -25.47, 37.77 ] } },
{ "type": "Feature", "properties": { "Name": "Aguilera ", "Country": "            Chile          ", "Type": "            Stratovolcano          ", "lat": -50.33, "lng": -73.75, "Elevation": 2546.0 }, "geometry": { "type": "Point", "coordinates": [ -73.75, -50.33 ] } },
{ "type": "Feature", "properties": { "Name": "Agung ", "Country": "            Lesser Sunda Islands          ", "Type": "            Stratovolcano          ", "lat": -8.34, "lng": 115.51, "Elevation": 3142.0 }, "geometry": { "type": "Point", "coordinates": [ 115.51, -8.34 ] } },
{ "type": "Feature", "properties": { "Name": "Ahyi ", "Country": "            Mariana Islands          ", "Type": "            Submarine          ", "lat": 20.42, "lng": 145.03, "Elevation": -137.0 }, "geometry": { "type": "Point", "coordinates": [ 145.03, 20.42 ] } },
{ "type": "Feature", "properties": { "Name": "Akademia Nauk ", "Country": "            Russia          ", "Type": "            Caldera          ", "lat": 53.98, "lng": 159.45, "Elevation": 1180.0 }, "geometry": { "type": "Point", "coordinates": [ 159.45, 53.98 ] } },
{ "type": "Feature", "properties": { "Name": "Akagi ", "Country": "            Japan          ", "Type": "            Stratovolcano          ", "lat": 36.56, "lng": 139.2, "Elevation": 1828.0 }, "geometry": { "type": "Point", "coordinates": [ 139.2, 36.56 ] } },
{ "type": "Feature", "properties": { "Name": "Akan ", "Country": "            Japan          ", "Type": "            Caldera          ", "lat": 43.38, "lng": 144.01, "Elevation": 1499.0 }, "geometry": { "type": "Point", "coordinates": [ 144.01, 43.38 ] } },
{ "type": "Feature", "properties": { "Name": "Akhtang ", "Country": "            Russia          ", "Type": "            Shield          ", "lat": 55.43, "lng": 158.65, "Elevation": 1956.0 }, "geometry": { "type": "Point", "coordinates": [ 158.65, 55.43 ] } },
{ "type": "Feature", "properties": { "Name": "Akita Komagatake ", "Country": "            Japan          ", "Type": "            Stratovolcano          ", "lat": 39.76, "lng": 140.8, "Elevation": 1637.0 }, "geometry": { "type": "Point", "coordinates": [ 140.8, 39.76 ] } },
{ "type": "Feature", "properties": { "Name": "Akita Yakeyama ", "Country": "            Japan          ", "Type": "            Stratovolcano          ", "lat": 39.96, "lng": 140.76, "Elevation": 1366.0 }, "geometry": { "type": "Point", "coordinates": [ 140.76, 39.96 ] } },
{ "type": "Feature", "properties": { "Name": "Akuseki-jima ", "Country": "            Japan          ", "Type": "            Stratovolcano          ", "lat": 29.46, "lng": 129.6, "Elevation": 584.0 }, "geometry": { "type": "Point", "coordinates": [ 129.6, 29.46 ] } },
{ "type": "Feature", "properties": { "Name": "Akutan ", "Country": "            USA          ", "Type": "            Stratovolcano          ", "lat": 54.13, "lng": -165.99, "Elevation": 1303.0 }, "geometry": { "type": "Point", "coordinates": [ -165.99, 54.13 ] } },
{ "type": "Feature", "properties": { "Name": "Alaid ", "Country": "            Russia          ", "Type": "            Stratovolcano          ", "lat": 50.86, "lng": 155.55, "Elevation": 2339.0 }, "geometry": { "type": "Point", "coordinates": [ 155.55, 50.86 ] } },
{ "type": "Feature", "properties": { "Name": "Alamagan ", "Country": "            Mariana Islands          ", "Type": "            Stratovolcano          ", "lat": 17.6, "lng": 145.83, "Elevation": 744.0 }, "geometry": { "type": "Point", "coordinates": [ 145.83, 17.6 ] } },
{ "type": "Feature", "properties": { "Name": "Alayta ", "Country": "            Ethiopia          ", "Type": "            Shield          ", "lat": 12.88, "lng": 40.57, "Elevation": 1501.0 }, "geometry": { "type": "Point", "coordinates": [ 40.57, 12.88 ] } },
{ "type": "Feature", "properties": { "Name": "Alban Hills ", "Country": "            Italy          ", "Type": "            Caldera          ", "lat": 41.73, "lng": 12.7, "Elevation": 949.0 }, "geometry": { "type": "Point", "coordinates": [ 12.7, 41.73 ] } },
{ "type": "Feature", "properties": { "Name": "Alcedo ", "Country": "            Galápagos Islands          ", "Type": "            Shield          ", "lat": -0.43, "lng": -91.12, "Elevation": 1130.0 }, "geometry": { "type": "Point", "coordinates": [ -91.12, -0.43 ] } },
{ "type": "Feature", "properties": { "Name": "Ale Bagu ", "Country": "            Ethiopia          ", "Type": "            Stratovolcano          ", "lat": 13.52, "lng": 40.63, "Elevation": 1031.0 }, "geometry": { "type": "Point", "coordinates": [ 40.63, 13.52 ] } },
{ "type": "Feature", "properties": { "Name": "Alid ", "Country": "            Eritrea          ", "Type": "            Stratovolcano          ", "lat": 14.88, "lng": 39.92, "Elevation": 904.0 }, "geometry": { "type": "Point", "coordinates": [ 39.92, 14.88 ] } },
{ "type": "Feature", "properties": { "Name": "Altiplano-Puna Volcanic Complex ", "Country": "            Multiple Countries          ", "Type": "", "lat": -22.44, "lng": -67.96, "Elevation": 4600.0 }, "geometry": { "type": "Point", "coordinates": [ -67.96, -22.44 ] } },
{ "type": "Feature", "properties": { "Name": "Ambrym ", "Country": "            Vanuatu          ", "Type": "            Shield          ", "lat": -16.25, "lng": 168.12, "Elevation": 1334.0 }, "geometry": { "type": "Point", "coordinates": [ 168.12, -16.25 ] } },
{ "type": "Feature", "properties": { "Name": "Anatahan ", "Country": "            Mariana Islands          ", "Type": "            Stratovolcano          ", "lat": 16.35, "lng": 145.67, "Elevation": 790.0 }, "geometry": { "type": "Point", "coordinates": [ 145.67, 16.35 ] } },
{ "type": "Feature", "properties": { "Name": "Aneityum ", "Country": "            Vanuatu          ", "Type": "            Stratovolcano          ", "lat": -20.2, "lng": 169.78, "Elevation": 852.0 }, "geometry": { "type": "Point", "coordinates": [ 169.78, -20.2 ] } },
{ "type": "Feature", "properties": { "Name": "Aniakchak ", "Country": "            USA          ", "Type": "            Caldera          ", "lat": 56.88, "lng": -158.17, "Elevation": 1341.0 }, "geometry": { "type": "Point", "coordinates": [ -158.17, 56.88 ] } },
{ "type": "Feature", "properties": { "Name": "Antisana ", "Country": "            Ecuador          ", "Type": "            Stratovolcano          ", "lat": -0.48, "lng": -78.14, "Elevation": 5753.0 }, "geometry": { "type": "Point", "coordinates": [ -78.14, -0.48 ] } },
{ "type": "Feature", "properties": { "Name": "Aoba ", "Country": "            Vanuatu          ", "Type": "            Shield          ", "lat": -15.4, "lng": 167.83, "Elevation": 1496.0 }, "geometry": { "type": "Point", "coordinates": [ 167.83, -15.4 ] } },
{ "type": "Feature", "properties": { "Name": "Ararat ", "Country": "            Turkey          ", "Type": "            Stratovolcano          ", "lat": 39.7, "lng": 44.3, "Elevation": 5165.0 }, "geometry": { "type": "Point", "coordinates": [ 44.3, 39.7 ] } },
{ "type": "Feature", "properties": { "Name": "Arenal ", "Country": "            Costa Rica          ", "Type": "            Stratovolcano          ", "lat": 10.46, "lng": -84.7, "Elevation": 1670.0 }, "geometry": { "type": "Point", "coordinates": [ -84.7, 10.46 ] } },
{ "type": "Feature", "properties": { "Name": "Arintica ", "Country": "            Chile          ", "Type": "            Complex Volcano          ", "lat": -18.73, "lng": -69.05, "Elevation": 5597.0 }, "geometry": { "type": "Point", "coordinates": [ -69.05, -18.73 ] } },
{ "type": "Feature", "properties": { "Name": "Asacha ", "Country": "            Russia          ", "Type": "            Stratovolcano          ", "lat": 52.36, "lng": 157.83, "Elevation": 1910.0 }, "geometry": { "type": "Point", "coordinates": [ 157.83, 52.36 ] } },
{ "type": "Feature", "properties": { "Name": "Asama ", "Country": "            Japan          ", "Type": "            Complex Volcano          ", "lat": 36.4, "lng": 138.53, "Elevation": 2568.0 }, "geometry": { "type": "Point", "coordinates": [ 138.53, 36.4 ] } },
{ "type": "Feature", "properties": { "Name": "Ascensión ", "Country": "            South Atlantic Ocean          ", "Type": "            Stratovolcano          ", "lat": -7.95, "lng": -14.37, "Elevation": 858.0 }, "geometry": { "type": "Point", "coordinates": [ -14.37, -7.95 ] } },
{ "type": "Feature", "properties": { "Name": "Askja ", "Country": "            Iceland          ", "Type": "            Stratovolcano          ", "lat": 65.03, "lng": -16.75, "Elevation": 1516.0 }, "geometry": { "type": "Point", "coordinates": [ -16.75, 65.03 ] } },
{ "type": "Feature", "properties": { "Name": "Aso ", "Country": "            Japan          ", "Type": "            Caldera          ", "lat": 32.88, "lng": 131.11, "Elevation": 1592.0 }, "geometry": { "type": "Point", "coordinates": [ 131.11, 32.88 ] } },
{ "type": "Feature", "properties": { "Name": "Atitlán ", "Country": "            Guatemala          ", "Type": "            Complex Volcano          ", "lat": 14.58, "lng": -91.19, "Elevation": 3535.0 }, "geometry": { "type": "Point", "coordinates": [ -91.19, 14.58 ] } },
{ "type": "Feature", "properties": { "Name": "Atka ", "Country": "            USA          ", "Type": "            Caldera          ", "lat": 52.38, "lng": -174.15, "Elevation": 1533.0 }, "geometry": { "type": "Point", "coordinates": [ -174.15, 52.38 ] } },
{ "type": "Feature", "properties": { "Name": "Atsonupuri ", "Country": "            Russia          ", "Type": "            Stratovolcano          ", "lat": 44.81, "lng": 147.14, "Elevation": 1206.0 }, "geometry": { "type": "Point", "coordinates": [ 147.14, 44.81 ] } },
{ "type": "Feature", "properties": { "Name": "Augustine ", "Country": "            USA          ", "Type": "            Dome          ", "lat": 59.36, "lng": -153.43, "Elevation": 1252.0 }, "geometry": { "type": "Point", "coordinates": [ -153.43, 59.36 ] } },
{ "type": "Feature", "properties": { "Name": "Avachinsky ", "Country": "            Russia          ", "Type": "            Stratovolcano          ", "lat": 53.26, "lng": 158.83, "Elevation": 2741.0 }, "geometry": { "type": "Point", "coordinates": [ 158.83, 53.26 ] } },
{ "type": "Feature", "properties": { "Name": "Awu ", "Country": "            Indonesia          ", "Type": "            Stratovolcano          ", "lat": 3.67, "lng": 125.5, "Elevation": 1320.0 }, "geometry": { "type": "Point", "coordinates": [ 125.5, 3.67 ] } },
{ "type": "Feature", "properties": { "Name": "Axial Seamount ", "Country": "            Pacific Ocean          ", "Type": "            Submarine          ", "lat": 45.95, "lng": -130.0, "Elevation": -1410.0 }, "geometry": { "type": "Point", "coordinates": [ -130.0, 45.95 ] } },
{ "type": "Feature", "properties": { "Name": "Ayelu ", "Country": "            Ethiopia          ", "Type": "            Stratovolcano          ", "lat": 10.08, "lng": 40.7, "Elevation": 2145.0 }, "geometry": { "type": "Point", "coordinates": [ 40.7, 10.08 ] } },
{ "type": "Feature", "properties": { "Name": "Azufre ", "Country": "            Chile          ", "Type": "            Complex Volcano          ", "lat": -21.79, "lng": -68.24, "Elevation": 5846.0 }, "geometry": { "type": "Point", "coordinates": [ -68.24, -21.79 ] } },
{ "type": "Feature", "properties": { "Name": "Azuma ", "Country": "            Japan          ", "Type": "            Stratovolcano          ", "lat": 37.73, "lng": 140.25, "Elevation": 2035.0 }, "geometry": { "type": "Point", "coordinates": [ 140.25, 37.73 ] } },
{ "type": "Feature", "properties": { "Name": "Babuyon Claro ", "Country": "            Philippines          ", "Type": "            Stratovolcano          ", "lat": 19.5, "lng": 121.9, "Elevation": 1180.0 }, "geometry": { "type": "Point", "coordinates": [ 121.9, 19.5 ] } },
{ "type": "Feature", "properties": { "Name": "Bachelor ", "Country": "            USA          ", "Type": "            Stratovolcano          ", "lat": 43.8, "lng": 121.6, "Elevation": 2763.0 }, "geometry": { "type": "Point", "coordinates": [ 121.6, 43.8 ] } },
{ "type": "Feature", "properties": { "Name": "Bagana ", "Country": "            Papua New Guinea          ", "Type": "            Cinder Cone          ", "lat": -6.1, "lng": 155.2, "Elevation": 1750.0 }, "geometry": { "type": "Point", "coordinates": [ 155.2, -6.1 ] } },
{ "type": "Feature", "properties": { "Name": "Baker ", "Country": "            USA          ", "Type": "            Stratovolcano          ", "lat": 48.79, "lng": -121.82, "Elevation": 3285.0 }, "geometry": { "type": "Point", "coordinates": [ -121.82, 48.79 ] } },
{ "type": "Feature", "properties": { "Name": "Bam ", "Country": "            Papua New Guinea          ", "Type": "            Stratovolcano          ", "lat": -3.6, "lng": 144.85, "Elevation": 685.0 }, "geometry": { "type": "Point", "coordinates": [ 144.85, -3.6 ] } },
{ "type": "Feature", "properties": { "Name": "Bamus ", "Country": "            Papua New Guinea          ", "Type": "            Stratovolcano          ", "lat": -5.2, "lng": 151.2, "Elevation": 2248.0 }, "geometry": { "type": "Point", "coordinates": [ 151.2, -5.2 ] } },
{ "type": "Feature", "properties": { "Name": "Bandai ", "Country": "            Japan          ", "Type": "            Stratovolcano          ", "lat": 37.6, "lng": 140.1, "Elevation": 1819.0 }, "geometry": { "type": "Point", "coordinates": [ 140.1, 37.6 ] } },
{ "type": "Feature", "properties": { "Name": "Barren Island ", "Country": "            India          ", "Type": "            Pyroclastic Cone          ", "lat": 12.29, "lng": 93.88, "Elevation": 305.0 }, "geometry": { "type": "Point", "coordinates": [ 93.88, 12.29 ] } },
{ "type": "Feature", "properties": { "Name": "Barrier ", "Country": "            Kenya          ", "Type": "            Complex Volcano          ", "lat": 2.32, "lng": 36.57, "Elevation": 1032.0 }, "geometry": { "type": "Point", "coordinates": [ 36.57, 2.32 ] } },
{ "type": "Feature", "properties": { "Name": "Bazman ", "Country": "            Iran          ", "Type": "            Stratovolcano          ", "lat": 28.0, "lng": 60.0, "Elevation": 3490.0 }, "geometry": { "type": "Point", "coordinates": [ 60.0, 28.0 ] } },
{ "type": "Feature", "properties": { "Name": "Beerenberg ", "Country": "            Norway          ", "Type": "            Stratovolcano          ", "lat": 71.1, "lng": -8.2, "Elevation": 2277.0 }, "geometry": { "type": "Point", "coordinates": [ -8.2, 71.1 ] } },
{ "type": "Feature", "properties": { "Name": "Belknap ", "Country": "            USA          ", "Type": "            Shield          ", "lat": 44.28, "lng": -121.83, "Elevation": 2096.0 }, "geometry": { "type": "Point", "coordinates": [ -121.83, 44.28 ] } },
{ "type": "Feature", "properties": { "Name": "Bezymianny ", "Country": "            Russia          ", "Type": "            Stratovolcano          ", "lat": 55.98, "lng": 160.58, "Elevation": 2882.0 }, "geometry": { "type": "Point", "coordinates": [ 160.58, 55.98 ] } },
{ "type": "Feature", "properties": { "Name": "Biliran ", "Country": "            Philippines          ", "Type": "            Complex Volcano          ", "lat": 11.5, "lng": 124.5, "Elevation": 1187.0 }, "geometry": { "type": "Point", "coordinates": [ 124.5, 11.5 ] } },
{ "type": "Feature", "properties": { "Name": "Bolshoi Semiachik ", "Country": "            Russia          ", "Type": "            Stratovolcano          ", "lat": 54.32, "lng": 160.02, "Elevation": 1720.0 }, "geometry": { "type": "Point", "coordinates": [ 160.02, 54.32 ] } },
{ "type": "Feature", "properties": { "Name": "Bulusan ", "Country": "            Philippines          ", "Type": "            Stratovolcano          ", "lat": 12.8, "lng": 124.1, "Elevation": 1565.0 }, "geometry": { "type": "Point", "coordinates": [ 124.1, 12.8 ] } },
{ "type": "Feature", "properties": { "Name": "Butajira ", "Country": "            Ethiopia          ", "Type": "            Maar          ", "lat": 8.05, "lng": 38.35, "Elevation": 2281.0 }, "geometry": { "type": "Point", "coordinates": [ 38.35, 8.05 ] } },
{ "type": "Feature", "properties": { "Name": "Cameroon (Mount) ", "Country": "            Cameroon          ", "Type": "            Stratovolcano          ", "lat": 4.2, "lng": 9.17, "Elevation": 4095.0 }, "geometry": { "type": "Point", "coordinates": [ 9.17, 4.2 ] } },
{ "type": "Feature", "properties": { "Name": "Camiguin de Babuyanes ", "Country": "            Philippines          ", "Type": "            Stratovolcano          ", "lat": 18.83, "lng": 121.85, "Elevation": 712.0 }, "geometry": { "type": "Point", "coordinates": [ 121.85, 18.83 ] } },
{ "type": "Feature", "properties": { "Name": "Canlaon ", "Country": "            Philippines          ", "Type": "            Stratovolcano          ", "lat": 10.41, "lng": 123.13, "Elevation": 2435.0 }, "geometry": { "type": "Point", "coordinates": [ 123.13, 10.41 ] } },
{ "type": "Feature", "properties": { "Name": "Capulin ", "Country": "            USA          ", "Type": "            Cinder Cone          ", "lat": 36.45, "lng": -104.09, "Elevation": 2494.0 }, "geometry": { "type": "Point", "coordinates": [ -104.09, 36.45 ] } },
{ "type": "Feature", "properties": { "Name": "Carrizozo ", "Country": "            USA          ", "Type": "            Volcanic Field          ", "lat": 33.7, "lng": -106.0, "Elevation": 1730.0 }, "geometry": { "type": "Point", "coordinates": [ -106.0, 33.7 ] } },
{ "type": "Feature", "properties": { "Name": "Cayambe ", "Country": "            Ecuador          ", "Type": "            Stratovolcano          ", "lat": 0.03, "lng": -77.99, "Elevation": 5790.0 }, "geometry": { "type": "Point", "coordinates": [ -77.99, 0.03 ] } },
{ "type": "Feature", "properties": { "Name": "Cereme ", "Country": "            Indonesia          ", "Type": "            Stratovolcano          ", "lat": -6.9, "lng": 108.41, "Elevation": 3078.0 }, "geometry": { "type": "Point", "coordinates": [ 108.41, -6.9 ] } },
{ "type": "Feature", "properties": { "Name": "Chaine des Puys ", "Country": "            France          ", "Type": "            Dome          ", "lat": 45.78, "lng": 2.97, "Elevation": 1464.0 }, "geometry": { "type": "Point", "coordinates": [ 2.97, 45.78 ] } },
{ "type": "Feature", "properties": { "Name": "Chiginagak ", "Country": "            USA          ", "Type": "            Stratovolcano          ", "lat": 57.13, "lng": -156.99, "Elevation": 2067.0 }, "geometry": { "type": "Point", "coordinates": [ -156.99, 57.13 ] } },
{ "type": "Feature", "properties": { "Name": "Chikurachki ", "Country": "            Russia          ", "Type": "            Stratovolcano          ", "lat": 50.33, "lng": 155.46, "Elevation": 5958.0 }, "geometry": { "type": "Point", "coordinates": [ 155.46, 50.33 ] } },
{ "type": "Feature", "properties": { "Name": "Chimborazo ", "Country": "            Ecuador          ", "Type": "            Stratovolcano          ", "lat": -1.46, "lng": -78.82, "Elevation": 6310.0 }, "geometry": { "type": "Point", "coordinates": [ -78.82, -1.46 ] } },
{ "type": "Feature", "properties": { "Name": "Cleveland ", "Country": "            USA          ", "Type": "            Stratovolcano          ", "lat": 52.83, "lng": -169.95, "Elevation": 1730.0 }, "geometry": { "type": "Point", "coordinates": [ -169.95, 52.83 ] } },
{ "type": "Feature", "properties": { "Name": "Coatepeque ", "Country": "            El Salvador          ", "Type": "            Caldera          ", "lat": 13.86, "lng": -89.54, "Elevation": 746.0 }, "geometry": { "type": "Point", "coordinates": [ -89.54, 13.86 ] } },
{ "type": "Feature", "properties": { "Name": "Colima ", "Country": "            Mexico          ", "Type": "            Stratovolcano          ", "lat": 19.51, "lng": 103.62, "Elevation": 4100.0 }, "geometry": { "type": "Point", "coordinates": [ 103.62, 19.51 ] } },
{ "type": "Feature", "properties": { "Name": "Columbia River Flood Basalts ", "Country": "            USA          ", "Type": "            Flood Basalt          ", "lat": null, "lng": null, "Elevation": null }, "geometry": { "type": "Point", "coordinates": null } },
{ "type": "Feature", "properties": { "Name": "Concepción ", "Country": "            Nicaragua          ", "Type": "            Stratovolcano          ", "lat": 11.5, "lng": 85.6, "Elevation": 1610.0 }, "geometry": { "type": "Point", "coordinates": [ 85.6, 11.5 ] } },
{ "type": "Feature", "properties": { "Name": "Copahue ", "Country": "            Argentina          ", "Type": "            Stratovolcano          ", "lat": -37.85, "lng": -71.17, "Elevation": 2965.0 }, "geometry": { "type": "Point", "coordinates": [ -71.17, -37.85 ] } },
{ "type": "Feature", "properties": { "Name": "Cosigüina ", "Country": "            Nicaragua          ", "Type": "            Shield          ", "lat": 12.98, "lng": -87.56, "Elevation": 847.0 }, "geometry": { "type": "Point", "coordinates": [ -87.56, 12.98 ] } },
{ "type": "Feature", "properties": { "Name": "Cotopaxi ", "Country": "            Ecuador          ", "Type": "            Stratovolcano          ", "lat": -0.68, "lng": -78.44, "Elevation": 5911.0 }, "geometry": { "type": "Point", "coordinates": [ -78.44, -0.68 ] } },
{ "type": "Feature", "properties": { "Name": "Crater Lake ", "Country": "            USA          ", "Type": "            Caldera          ", "lat": 42.94, "lng": -122.11, "Elevation": 2471.0 }, "geometry": { "type": "Point", "coordinates": [ -122.11, 42.94 ] } },
{ "type": "Feature", "properties": { "Name": "Craters of the Moon ", "Country": "            USA          ", "Type": "            Volcanic Field          ", "lat": 43.42, "lng": -113.5, "Elevation": 2005.0 }, "geometry": { "type": "Point", "coordinates": [ -113.5, 43.42 ] } },
{ "type": "Feature", "properties": { "Name": "Daisetsu ", "Country": "            Japan          ", "Type": "            Stratovolcano          ", "lat": 43.7, "lng": 142.9, "Elevation": 2290.0 }, "geometry": { "type": "Point", "coordinates": [ 142.9, 43.7 ] } },
{ "type": "Feature", "properties": { "Name": "Dakataua ", "Country": "            Papua New Guinea          ", "Type": "            Caldera          ", "lat": -5.0, "lng": 150.1, "Elevation": 400.0 }, "geometry": { "type": "Point", "coordinates": [ 150.1, -5.0 ] } },
{ "type": "Feature", "properties": { "Name": "Damavand ", "Country": "            Iran          ", "Type": "            Stratovolcano          ", "lat": 35.95, "lng": 52.11, "Elevation": 5670.0 }, "geometry": { "type": "Point", "coordinates": [ 52.11, 35.95 ] } },
{ "type": "Feature", "properties": { "Name": "Deccan Traps ", "Country": "            India          ", "Type": "            Flood Basalt          ", "lat": null, "lng": null, "Elevation": null }, "geometry": { "type": "Point", "coordinates": null } },
{ "type": "Feature", "properties": { "Name": "Dempo ", "Country": "            Indonesia          ", "Type": "            Stratovolcano          ", "lat": -4.0, "lng": 103.1, "Elevation": 3173.0 }, "geometry": { "type": "Point", "coordinates": [ 103.1, -4.0 ] } },
{ "type": "Feature", "properties": { "Name": "Devils Garden ", "Country": "            USA          ", "Type": "            Volcanic Field          ", "lat": 43.5, "lng": -120.9, "Elevation": 1525.0 }, "geometry": { "type": "Point", "coordinates": [ -120.9, 43.5 ] } },
{ "type": "Feature", "properties": { "Name": "Devils Tower ", "Country": "            USA          ", "Type": "            Plug          ", "lat": 44.6, "lng": -104.7, "Elevation": 1558.0 }, "geometry": { "type": "Point", "coordinates": [ -104.7, 44.6 ] } },
{ "type": "Feature", "properties": { "Name": "Diamond Craters ", "Country": "            USA          ", "Type": "            Volcanic Field          ", "lat": 43.1, "lng": -118.7, "Elevation": 1450.0 }, "geometry": { "type": "Point", "coordinates": [ -118.7, 43.1 ] } },
{ "type": "Feature", "properties": { "Name": "Dieng Volcanic Complex ", "Country": "            Indonesia          ", "Type": "            Complex Volcano          ", "lat": -7.2, "lng": 109.9, "Elevation": 2565.0 }, "geometry": { "type": "Point", "coordinates": [ 109.9, -7.2 ] } },
{ "type": "Feature", "properties": { "Name": "Diky Greben ", "Country": "            Russia          ", "Type": "            Dome          ", "lat": 51.46, "lng": 156.98, "Elevation": 1331.0 }, "geometry": { "type": "Point", "coordinates": [ 156.98, 51.46 ] } },
{ "type": "Feature", "properties": { "Name": "Dubbi ", "Country": "            Eritrea          ", "Type": "            Stratovolcano          ", "lat": 13.6, "lng": 41.8, "Elevation": 1625.0 }, "geometry": { "type": "Point", "coordinates": [ 41.8, 13.6 ] } },
{ "type": "Feature", "properties": { "Name": "Dukono ", "Country": "            Indonesia          ", "Type": "            Complex Volcano          ", "lat": 1.7, "lng": 127.87, "Elevation": 1185.0 }, "geometry": { "type": "Point", "coordinates": [ 127.87, 1.7 ] } },
{ "type": "Feature", "properties": { "Name": "East Epi ", "Country": "            Vanuatu          ", "Type": "            Caldera          ", "lat": -16.7, "lng": 168.4, "Elevation": -34.0 }, "geometry": { "type": "Point", "coordinates": [ 168.4, -16.7 ] } },
{ "type": "Feature", "properties": { "Name": "Ebeko ", "Country": "            Russia          ", "Type": "            Somma Volcano          ", "lat": 50.68, "lng": 156.02, "Elevation": 1156.0 }, "geometry": { "type": "Point", "coordinates": [ 156.02, 50.68 ] } },
{ "type": "Feature", "properties": { "Name": "Egmont (Taranaki) ", "Country": "            New Zealand          ", "Type": "            Stratovolcano          ", "lat": -39.3, "lng": 174.1, "Elevation": 2518.0 }, "geometry": { "type": "Point", "coordinates": [ 174.1, -39.3 ] } },
{ "type": "Feature", "properties": { "Name": "Egon ", "Country": "            Indonesia          ", "Type": "            Stratovolcano          ", "lat": -8.7, "lng": 122.45, "Elevation": 788.0 }, "geometry": { "type": "Point", "coordinates": [ 122.45, -8.7 ] } },
{ "type": "Feature", "properties": { "Name": "El Chichon ", "Country": "            Mexico          ", "Type": "            Caldera          ", "lat": 17.36, "lng": -93.23, "Elevation": 1060.0 }, "geometry": { "type": "Point", "coordinates": [ -93.23, 17.36 ] } },
{ "type": "Feature", "properties": { "Name": "Elbrus ", "Country": "            Russia          ", "Type": "            Stratovolcano          ", "lat": 43.33, "lng": 42.45, "Elevation": 5633.0 }, "geometry": { "type": "Point", "coordinates": [ 42.45, 43.33 ] } },
{ "type": "Feature", "properties": { "Name": "Erebus ", "Country": "            Antarctica          ", "Type": "            Stratovolcano          ", "lat": -77.5, "lng": 167.2, "Elevation": 3794.0 }, "geometry": { "type": "Point", "coordinates": [ 167.2, -77.5 ] } },
{ "type": "Feature", "properties": { "Name": "Erta Ale ", "Country": "            Ethiopia          ", "Type": "            Shield          ", "lat": 13.6, "lng": 40.7, "Elevation": 613.0 }, "geometry": { "type": "Point", "coordinates": [ 40.7, 13.6 ] } },
{ "type": "Feature", "properties": { "Name": "Etna ", "Country": "            Italy          ", "Type": "            Stratovolcano          ", "lat": 37.73, "lng": 15.0, "Elevation": 3350.0 }, "geometry": { "type": "Point", "coordinates": [ 15.0, 37.73 ] } },
{ "type": "Feature", "properties": { "Name": "Fantale ", "Country": "            Ethiopia          ", "Type": "            Stratovolcano          ", "lat": 8.98, "lng": 39.93, "Elevation": 2007.0 }, "geometry": { "type": "Point", "coordinates": [ 39.93, 8.98 ] } },
{ "type": "Feature", "properties": { "Name": "Fernandina ", "Country": "            Ecuador          ", "Type": "            Caldera          ", "lat": -0.37, "lng": -91.55, "Elevation": 1476.0 }, "geometry": { "type": "Point", "coordinates": [ -91.55, -0.37 ] } },
{ "type": "Feature", "properties": { "Name": "Fisher ", "Country": "            USA          ", "Type": "            Stratovolcano          ", "lat": -54.63, "lng": -164.42, "Elevation": 1095.0 }, "geometry": { "type": "Point", "coordinates": [ -164.42, -54.63 ] } },
{ "type": "Feature", "properties": { "Name": "Fogo ", "Country": "            Cape Verde Islands          ", "Type": "            Stratovolcano          ", "lat": 14.95, "lng": -24.35, "Elevation": 2829.0 }, "geometry": { "type": "Point", "coordinates": [ -24.35, 14.95 ] } },
{ "type": "Feature", "properties": { "Name": "Fort Rock ", "Country": "            USA          ", "Type": "            Maar          ", "lat": 43.37, "lng": -121.07, "Elevation": 1716.0 }, "geometry": { "type": "Point", "coordinates": [ -121.07, 43.37 ] } },
{ "type": "Feature", "properties": { "Name": "Frosty Peak ", "Country": "            USA          ", "Type": "            Stratovolcano          ", "lat": 55.08, "lng": -162.81, "Elevation": 1920.0 }, "geometry": { "type": "Point", "coordinates": [ -162.81, 55.08 ] } },
{ "type": "Feature", "properties": { "Name": "Fuego ", "Country": "            Guatemala          ", "Type": "            Stratovolcano          ", "lat": 14.47, "lng": -90.88, "Elevation": 3763.0 }, "geometry": { "type": "Point", "coordinates": [ -90.88, 14.47 ] } },
{ "type": "Feature", "properties": { "Name": "Fuerteventura ", "Country": "            Spain          ", "Type": "            Fissure vents          ", "lat": 28.36, "lng": -14.02, "Elevation": 529.0 }, "geometry": { "type": "Point", "coordinates": [ -14.02, 28.36 ] } },
{ "type": "Feature", "properties": { "Name": "Fuji ", "Country": "            Japan          ", "Type": "            Stratovolcano          ", "lat": 35.36, "lng": 138.73, "Elevation": 3776.0 }, "geometry": { "type": "Point", "coordinates": [ 138.73, 35.36 ] } },
{ "type": "Feature", "properties": { "Name": "Furnas ", "Country": "            Azores (Portugal)          ", "Type": "            Stratovolcano          ", "lat": 37.76, "lng": -25.33, "Elevation": 805.0 }, "geometry": { "type": "Point", "coordinates": [ -25.33, 37.76 ] } },
{ "type": "Feature", "properties": { "Name": "Fuss Peak ", "Country": "            Russia          ", "Type": "            Stratovolcano          ", "lat": 50.27, "lng": 155.25, "Elevation": 1772.0 }, "geometry": { "type": "Point", "coordinates": [ 155.25, 50.27 ] } },
{ "type": "Feature", "properties": { "Name": "Galeras ", "Country": "            Colombia          ", "Type": "            Stratovolcano          ", "lat": 1.22, "lng": -77.37, "Elevation": 4276.0 }, "geometry": { "type": "Point", "coordinates": [ -77.37, 1.22 ] } },
{ "type": "Feature", "properties": { "Name": "Galunggung ", "Country": "            Indonesia          ", "Type": "            Stratovolcano          ", "lat": -7.26, "lng": 108.08, "Elevation": 2168.0 }, "geometry": { "type": "Point", "coordinates": [ 108.08, -7.26 ] } },
{ "type": "Feature", "properties": { "Name": "Gamalama ", "Country": "            Indonesia          ", "Type": "            Stratovolcano          ", "lat": 0.81, "lng": 127.33, "Elevation": 1715.0 }, "geometry": { "type": "Point", "coordinates": [ 127.33, 0.81 ] } },
{ "type": "Feature", "properties": { "Name": "Gamchen ", "Country": "            Russia          ", "Type": "            Stratovolcano          ", "lat": 54.97, "lng": 160.68, "Elevation": 2576.0 }, "geometry": { "type": "Point", "coordinates": [ 160.68, 54.97 ] } },
{ "type": "Feature", "properties": { "Name": "Gamkonora ", "Country": "            Indonesia          ", "Type": "            Stratovolcano          ", "lat": 1.38, "lng": 127.53, "Elevation": 1635.0 }, "geometry": { "type": "Point", "coordinates": [ 127.53, 1.38 ] } },
{ "type": "Feature", "properties": { "Name": "Gareloi ", "Country": "            USA          ", "Type": "            Stratovolcano          ", "lat": 51.8, "lng": 178.8, "Elevation": 1573.0 }, "geometry": { "type": "Point", "coordinates": [ 178.8, 51.8 ] } },
{ "type": "Feature", "properties": { "Name": "Gaua ", "Country": "            Vanuatu          ", "Type": "            Stratovolcano          ", "lat": -14.27, "lng": 167.5, "Elevation": 797.0 }, "geometry": { "type": "Point", "coordinates": [ 167.5, -14.27 ] } },
{ "type": "Feature", "properties": { "Name": "Gede ", "Country": "            Indonesia          ", "Type": "", "lat": -6.77, "lng": 106.94, "Elevation": 2958.0 }, "geometry": { "type": "Point", "coordinates": [ 106.94, -6.77 ] } },
{ "type": "Feature", "properties": { "Name": "Glacier Peak ", "Country": "            USA          ", "Type": "            Stratovolcano          ", "lat": 48.11, "lng": -121.11, "Elevation": 3213.0 }, "geometry": { "type": "Point", "coordinates": [ -121.11, 48.11 ] } },
{ "type": "Feature", "properties": { "Name": "Gorely ", "Country": "            Russia          ", "Type": "            Caldera          ", "lat": 52.56, "lng": 158.03, "Elevation": 1829.0 }, "geometry": { "type": "Point", "coordinates": [ 158.03, 52.56 ] } },
{ "type": "Feature", "properties": { "Name": "Graciosa ", "Country": "            Azores (Portugal)          ", "Type": "            Stratovolcano          ", "lat": 39.02, "lng": -27.97, "Elevation": 402.0 }, "geometry": { "type": "Point", "coordinates": [ -27.97, 39.02 ] } },
{ "type": "Feature", "properties": { "Name": "Gran Canaria ", "Country": "            Canary Islands (Spain)          ", "Type": "            Fissure vents          ", "lat": 28.0, "lng": 15.58, "Elevation": 1950.0 }, "geometry": { "type": "Point", "coordinates": [ 15.58, 28.0 ] } },
{ "type": "Feature", "properties": { "Name": "Great Sitkin ", "Country": "            USA          ", "Type": "            Stratovolcano          ", "lat": 52.07, "lng": -176.13, "Elevation": 1740.0 }, "geometry": { "type": "Point", "coordinates": [ -176.13, 52.07 ] } },
{ "type": "Feature", "properties": { "Name": "Griggs ", "Country": "            USA          ", "Type": "            Stratovolcano          ", "lat": 58.35, "lng": -155.09, "Elevation": 2317.0 }, "geometry": { "type": "Point", "coordinates": [ -155.09, 58.35 ] } },
{ "type": "Feature", "properties": { "Name": "Grímsvötn ", "Country": "            Iceland          ", "Type": "            Caldera          ", "lat": 64.42, "lng": -17.33, "Elevation": 1725.0 }, "geometry": { "type": "Point", "coordinates": [ -17.33, 64.42 ] } },
{ "type": "Feature", "properties": { "Name": "Guagua Pichincha ", "Country": "            Ecuador          ", "Type": "", "lat": -0.17, "lng": -78.6, "Elevation": 4784.0 }, "geometry": { "type": "Point", "coordinates": [ -78.6, -0.17 ] } },
{ "type": "Feature", "properties": { "Name": "Guallatiri ", "Country": "            Chile          ", "Type": "            Stratovolcano          ", "lat": -18.42, "lng": -69.09, "Elevation": 6071.0 }, "geometry": { "type": "Point", "coordinates": [ -69.09, -18.42 ] } },
{ "type": "Feature", "properties": { "Name": "Guguan ", "Country": "            USA          ", "Type": "            Stratovolcano          ", "lat": 17.31, "lng": 145.84, "Elevation": 287.0 }, "geometry": { "type": "Point", "coordinates": [ 145.84, 17.31 ] } },
{ "type": "Feature", "properties": { "Name": "Hakone ", "Country": "            Japan          ", "Type": "", "lat": 35.23, "lng": 139.02, "Elevation": 1439.0 }, "geometry": { "type": "Point", "coordinates": [ 139.02, 35.23 ] } },
{ "type": "Feature", "properties": { "Name": "Heard ", "Country": "            Australia          ", "Type": "            Stratovolcano          ", "lat": -53.1, "lng": 73.5, "Elevation": 2745.0 }, "geometry": { "type": "Point", "coordinates": [ 73.5, -53.1 ] } },
{ "type": "Feature", "properties": { "Name": "Hibok-hibok ", "Country": "            Philippines          ", "Type": "            Stratovolcano          ", "lat": 9.2, "lng": 124.7, "Elevation": 1332.0 }, "geometry": { "type": "Point", "coordinates": [ 124.7, 9.2 ] } },
{ "type": "Feature", "properties": { "Name": "Hierro ", "Country": "            Spain          ", "Type": "            Shield          ", "lat": 27.73, "lng": -18.03, "Elevation": 1500.0 }, "geometry": { "type": "Point", "coordinates": [ -18.03, 27.73 ] } },
{ "type": "Feature", "properties": { "Name": "Hood ", "Country": "            USA          ", "Type": "            Stratovolcano          ", "lat": 45.4, "lng": -121.7, "Elevation": 3426.0 }, "geometry": { "type": "Point", "coordinates": [ -121.7, 45.4 ] } },
{ "type": "Feature", "properties": { "Name": "Hualalai ", "Country": "            USA          ", "Type": "            Shield          ", "lat": 19.69, "lng": -155.87, "Elevation": 2523.0 }, "geometry": { "type": "Point", "coordinates": [ -155.87, 19.69 ] } },
{ "type": "Feature", "properties": { "Name": "Ibu ", "Country": "            Indonesia          ", "Type": "            Stratovolcano          ", "lat": 1.49, "lng": 127.63, "Elevation": 1325.0 }, "geometry": { "type": "Point", "coordinates": [ 127.63, 1.49 ] } },
{ "type": "Feature", "properties": { "Name": "Ijen ", "Country": "            Indonesia          ", "Type": "            Stratovolcano          ", "lat": -8.06, "lng": 114.24, "Elevation": 2386.0 }, "geometry": { "type": "Point", "coordinates": [ 114.24, -8.06 ] } },
{ "type": "Feature", "properties": { "Name": "Iliamna ", "Country": "            USA          ", "Type": "            Stratovolcano          ", "lat": 60.03, "lng": -153.09, "Elevation": 3053.0 }, "geometry": { "type": "Point", "coordinates": [ -153.09, 60.03 ] } },
{ "type": "Feature", "properties": { "Name": "Iliboleng ", "Country": "            Indonesia          ", "Type": "            Stratovolcano          ", "lat": -8.34, "lng": 123.26, "Elevation": 1659.0 }, "geometry": { "type": "Point", "coordinates": [ 123.26, -8.34 ] } },
{ "type": "Feature", "properties": { "Name": "Iliniza ", "Country": "            Ecuador          ", "Type": "            Stratovolcano          ", "lat": -0.66, "lng": -78.71, "Elevation": 5248.0 }, "geometry": { "type": "Point", "coordinates": [ -78.71, -0.66 ] } },
{ "type": "Feature", "properties": { "Name": "Ilopango ", "Country": "            El Salvador          ", "Type": "            Caldera          ", "lat": 13.67, "lng": -89.05, "Elevation": 450.0 }, "geometry": { "type": "Point", "coordinates": [ -89.05, 13.67 ] } },
{ "type": "Feature", "properties": { "Name": "Ilyinsky ", "Country": "            Russia          ", "Type": "            Stratovolcano          ", "lat": 51.49, "lng": 157.2, "Elevation": 1578.0 }, "geometry": { "type": "Point", "coordinates": [ 157.2, 51.49 ] } },
{ "type": "Feature", "properties": { "Name": "Ioto (Iwo-jima) ", "Country": "            Japan          ", "Type": "            Caldera          ", "lat": 24.75, "lng": 141.29, "Elevation": 161.0 }, "geometry": { "type": "Point", "coordinates": [ 141.29, 24.75 ] } },
{ "type": "Feature", "properties": { "Name": "Iraya ", "Country": "            Philippines          ", "Type": "            Stratovolcano          ", "lat": 20.47, "lng": 122.01, "Elevation": 1009.0 }, "geometry": { "type": "Point", "coordinates": [ 122.01, 20.47 ] } },
{ "type": "Feature", "properties": { "Name": "Irazu ", "Country": "            Costa Rica          ", "Type": "            Stratovolcano          ", "lat": 9.98, "lng": 83.85, "Elevation": 3431.0 }, "geometry": { "type": "Point", "coordinates": [ 83.85, 9.98 ] } },
{ "type": "Feature", "properties": { "Name": "Isanotski ", "Country": "            USA          ", "Type": "            Stratovolcano          ", "lat": 54.77, "lng": -163.72, "Elevation": 2446.0 }, "geometry": { "type": "Point", "coordinates": [ -163.72, 54.77 ] } },
{ "type": "Feature", "properties": { "Name": "Izalco ", "Country": "            El Salvador          ", "Type": "            Stratovolcano          ", "lat": 13.81, "lng": -89.63, "Elevation": 1950.0 }, "geometry": { "type": "Point", "coordinates": [ -89.63, 13.81 ] } },
{ "type": "Feature", "properties": { "Name": "Iztaccihuatl ", "Country": "            Mexico          ", "Type": "            Stratovolcano          ", "lat": 19.18, "lng": -98.64, "Elevation": 5286.0 }, "geometry": { "type": "Point", "coordinates": [ -98.64, 19.18 ] } },
{ "type": "Feature", "properties": { "Name": "Izu-Tobu ", "Country": "            Japan          ", "Type": "            Pyroclastic Cone          ", "lat": 34.9, "lng": 139.1, "Elevation": 581.0 }, "geometry": { "type": "Point", "coordinates": [ 139.1, 34.9 ] } },
{ "type": "Feature", "properties": { "Name": "Jailolo ", "Country": "            Indonesia          ", "Type": "            Stratovolcano          ", "lat": 1.08, "lng": 127.42, "Elevation": 1130.0 }, "geometry": { "type": "Point", "coordinates": [ 127.42, 1.08 ] } },
{ "type": "Feature", "properties": { "Name": "Jefferson ", "Country": "            USA          ", "Type": "            Stratovolcano          ", "lat": 44.67, "lng": -121.8, "Elevation": 3199.0 }, "geometry": { "type": "Point", "coordinates": [ -121.8, 44.67 ] } },
{ "type": "Feature", "properties": { "Name": "Jordan Craters ", "Country": "            USA          ", "Type": "            Volcanic Field          ", "lat": 43.1, "lng": -117.4, "Elevation": 1400.0 }, "geometry": { "type": "Point", "coordinates": [ -117.4, 43.1 ] } },
{ "type": "Feature", "properties": { "Name": "Kadovar ", "Country": "            Papua New Guinea          ", "Type": "            Stratovolcano          ", "lat": -3.63, "lng": 144.63, "Elevation": 365.0 }, "geometry": { "type": "Point", "coordinates": [ 144.63, -3.63 ] } },
{ "type": "Feature", "properties": { "Name": "Kaguyak ", "Country": "            United States          ", "Type": "            Stratovolcano          ", "lat": 58.62, "lng": -154.06, "Elevation": 901.0 }, "geometry": { "type": "Point", "coordinates": [ -154.06, 58.62 ] } },
{ "type": "Feature", "properties": { "Name": "Kahoolawe ", "Country": "            United States          ", "Type": "            Shield          ", "lat": 20.55, "lng": -156.57, "Elevation": 450.0 }, "geometry": { "type": "Point", "coordinates": [ -156.57, 20.55 ] } },
{ "type": "Feature", "properties": { "Name": "Kambalny ", "Country": "            Russia          ", "Type": "            Stratovolcano          ", "lat": 51.3, "lng": 156.87, "Elevation": 2156.0 }, "geometry": { "type": "Point", "coordinates": [ 156.87, 51.3 ] } },
{ "type": "Feature", "properties": { "Name": "Kanaga ", "Country": "            United States          ", "Type": "            Stratovolcano          ", "lat": 51.92, "lng": -177.17, "Elevation": 1307.0 }, "geometry": { "type": "Point", "coordinates": [ -177.17, 51.92 ] } },
{ "type": "Feature", "properties": { "Name": "Kanlaon ", "Country": "            Philippines          ", "Type": "            Stratovolcano          ", "lat": 10.41, "lng": 123.13, "Elevation": 2435.0 }, "geometry": { "type": "Point", "coordinates": [ 123.13, 10.41 ] } },
{ "type": "Feature", "properties": { "Name": "Karangetang [Api Siau] ", "Country": "            Indonesia          ", "Type": "            Stratovolcano          ", "lat": 2.78, "lng": 125.4, "Elevation": 1784.0 }, "geometry": { "type": "Point", "coordinates": [ 125.4, 2.78 ] } },
{ "type": "Feature", "properties": { "Name": "Karisimbi ", "Country": "CongoRwanda ", "Type": "            Stratovolcano          ", "lat": -1.51, "lng": 29.45, "Elevation": 4507.0 }, "geometry": { "type": "Point", "coordinates": [ 29.45, -1.51 ] } },
{ "type": "Feature", "properties": { "Name": "Karthala ", "Country": "            Comoros          ", "Type": "            Shield          ", "lat": -11.75, "lng": 43.38, "Elevation": 2361.0 }, "geometry": { "type": "Point", "coordinates": [ 43.38, -11.75 ] } },
{ "type": "Feature", "properties": { "Name": "Karymsky ", "Country": "            Russia          ", "Type": "            Stratovolcano          ", "lat": 54.05, "lng": 159.45, "Elevation": 1536.0 }, "geometry": { "type": "Point", "coordinates": [ 159.45, 54.05 ] } },
{ "type": "Feature", "properties": { "Name": "Katla ", "Country": "            Iceland          ", "Type": "            Fissure vents          ", "lat": 63.63, "lng": -19.05, "Elevation": 1512.0 }, "geometry": { "type": "Point", "coordinates": [ -19.05, 63.63 ] } },
{ "type": "Feature", "properties": { "Name": "Katmai ", "Country": "            United States          ", "Type": "            Stratovolcano          ", "lat": 58.28, "lng": -154.96, "Elevation": 2047.0 }, "geometry": { "type": "Point", "coordinates": [ -154.96, 58.28 ] } },
{ "type": "Feature", "properties": { "Name": "Katwe-Kikorongo ", "Country": "            Uganda          ", "Type": "            Volcanic Field          ", "lat": -0.08, "lng": 29.92, "Elevation": 1067.0 }, "geometry": { "type": "Point", "coordinates": [ 29.92, -0.08 ] } },
{ "type": "Feature", "properties": { "Name": "Kavachi ", "Country": "            Solomon Islands          ", "Type": "            Submarine          ", "lat": -9.02, "lng": 157.95, "Elevation": -20.0 }, "geometry": { "type": "Point", "coordinates": [ 157.95, -9.02 ] } },
{ "type": "Feature", "properties": { "Name": "Kell ", "Country": "            Russia          ", "Type": "            Stratovolcano          ", "lat": 51.65, "lng": 157.35, "Elevation": 900.0 }, "geometry": { "type": "Point", "coordinates": [ 157.35, 51.65 ] } },
{ "type": "Feature", "properties": { "Name": "Kelut ", "Country": "            Indonesia          ", "Type": "            Stratovolcano          ", "lat": -7.93, "lng": 112.31, "Elevation": 1731.0 }, "geometry": { "type": "Point", "coordinates": [ 112.31, -7.93 ] } },
{ "type": "Feature", "properties": { "Name": "Kerinci ", "Country": "            Indonesia          ", "Type": "            Stratovolcano          ", "lat": 1.7, "lng": 101.26, "Elevation": 3800.0 }, "geometry": { "type": "Point", "coordinates": [ 101.26, 1.7 ] } },
{ "type": "Feature", "properties": { "Name": "Khodutka ", "Country": "            Russia          ", "Type": "            Stratovolcano          ", "lat": 52.06, "lng": 157.7, "Elevation": 2090.0 }, "geometry": { "type": "Point", "coordinates": [ 157.7, 52.06 ] } },
{ "type": "Feature", "properties": { "Name": "Kialagvik ", "Country": "            United States          ", "Type": "            Stratovolcano          ", "lat": 57.2, "lng": -156.75, "Elevation": 1677.0 }, "geometry": { "type": "Point", "coordinates": [ -156.75, 57.2 ] } },
{ "type": "Feature", "properties": { "Name": "Kick 'em Jenny ", "Country": "            Grenada          ", "Type": "            Submarine          ", "lat": 12.3, "lng": -61.64, "Elevation": -185.0 }, "geometry": { "type": "Point", "coordinates": [ -61.64, 12.3 ] } },
{ "type": "Feature", "properties": { "Name": "Kikai ", "Country": "            Japan          ", "Type": "            Caldera          ", "lat": 30.79, "lng": 130.31, "Elevation": 704.0 }, "geometry": { "type": "Point", "coordinates": [ 130.31, 30.79 ] } },
{ "type": "Feature", "properties": { "Name": "Kikhpinych ", "Country": "            Russia          ", "Type": "            Stratovolcano          ", "lat": 54.49, "lng": 160.25, "Elevation": 1552.0 }, "geometry": { "type": "Point", "coordinates": [ 160.25, 54.49 ] } },
{ "type": "Feature", "properties": { "Name": "Kilauea ", "Country": "            United States          ", "Type": "            Shield          ", "lat": 19.42, "lng": -155.29, "Elevation": 1222.0 }, "geometry": { "type": "Point", "coordinates": [ -155.29, 19.42 ] } },
{ "type": "Feature", "properties": { "Name": "Kilimanjaro ", "Country": "            Tanzania          ", "Type": "            Stratovolcano          ", "lat": 3.07, "lng": 37.35, "Elevation": 5895.0 }, "geometry": { "type": "Point", "coordinates": [ 37.35, 3.07 ] } },
{ "type": "Feature", "properties": { "Name": "Kirishima ", "Country": "            Japan          ", "Type": "            Stratovolcano          ", "lat": 31.93, "lng": 130.86, "Elevation": 1700.0 }, "geometry": { "type": "Point", "coordinates": [ 130.86, 31.93 ] } },
{ "type": "Feature", "properties": { "Name": "Kliuchevskoi ", "Country": "            Russia          ", "Type": "            Stratovolcano          ", "lat": 56.06, "lng": 160.64, "Elevation": 4835.0 }, "geometry": { "type": "Point", "coordinates": [ 160.64, 56.06 ] } },
{ "type": "Feature", "properties": { "Name": "Komagatake ", "Country": "            Japan          ", "Type": "            Stratovolcano          ", "lat": 42.06, "lng": 140.68, "Elevation": 1131.0 }, "geometry": { "type": "Point", "coordinates": [ 140.68, 42.06 ] } },
{ "type": "Feature", "properties": { "Name": "Kone ", "Country": "            Ethiopia          ", "Type": "            Caldera          ", "lat": 8.8, "lng": 39.69, "Elevation": 1619.0 }, "geometry": { "type": "Point", "coordinates": [ 39.69, 8.8 ] } },
{ "type": "Feature", "properties": { "Name": "Koryaksky ", "Country": "            Russia          ", "Type": "            Stratovolcano          ", "lat": 53.32, "lng": 158.69, "Elevation": 3456.0 }, "geometry": { "type": "Point", "coordinates": [ 158.69, 53.32 ] } },
{ "type": "Feature", "properties": { "Name": "Koshelev ", "Country": "            Russia          ", "Type": "            Stratovolcano          ", "lat": 51.36, "lng": 156.75, "Elevation": 1812.0 }, "geometry": { "type": "Point", "coordinates": [ 156.75, 51.36 ] } },
{ "type": "Feature", "properties": { "Name": "Krafla ", "Country": "            Iceland          ", "Type": "            Caldera          ", "lat": 65.73, "lng": -16.78, "Elevation": 818.0 }, "geometry": { "type": "Point", "coordinates": [ -16.78, 65.73 ] } },
{ "type": "Feature", "properties": { "Name": "Krakatau ", "Country": "            Indonesia          ", "Type": "            Stratovolcano          ", "lat": -6.1, "lng": 105.42, "Elevation": 813.0 }, "geometry": { "type": "Point", "coordinates": [ 105.42, -6.1 ] } },
{ "type": "Feature", "properties": { "Name": "Krasheninnikov ", "Country": "            Russia          ", "Type": "            Stratovolcano          ", "lat": 54.59, "lng": 160.27, "Elevation": 1856.0 }, "geometry": { "type": "Point", "coordinates": [ 160.27, 54.59 ] } },
{ "type": "Feature", "properties": { "Name": "Kronotsky ", "Country": "            Russia          ", "Type": "            Stratovolcano          ", "lat": 54.75, "lng": 160.53, "Elevation": 3528.0 }, "geometry": { "type": "Point", "coordinates": [ 160.53, 54.75 ] } },
{ "type": "Feature", "properties": { "Name": "Ksudach ", "Country": "            Russia          ", "Type": "            Stratovolcano          ", "lat": 51.8, "lng": 157.53, "Elevation": 1079.0 }, "geometry": { "type": "Point", "coordinates": [ 157.53, 51.8 ] } },
{ "type": "Feature", "properties": { "Name": "Kukak ", "Country": "            United States          ", "Type": "            Stratovolcano          ", "lat": 58.45, "lng": -154.36, "Elevation": 2043.0 }, "geometry": { "type": "Point", "coordinates": [ -154.36, 58.45 ] } },
{ "type": "Feature", "properties": { "Name": "Kusatsu-Shirane ", "Country": "            Japan          ", "Type": "            Stratovolcano          ", "lat": 36.64, "lng": 138.54, "Elevation": 2171.0 }, "geometry": { "type": "Point", "coordinates": [ 138.54, 36.64 ] } },
{ "type": "Feature", "properties": { "Name": "Kutcharo ", "Country": "            Japan          ", "Type": "            Caldera          ", "lat": 43.61, "lng": 144.44, "Elevation": 999.0 }, "geometry": { "type": "Point", "coordinates": [ 144.44, 43.61 ] } },
{ "type": "Feature", "properties": { "Name": "Kuttara ", "Country": "            Japan          ", "Type": "            Stratovolcano          ", "lat": 42.49, "lng": 141.16, "Elevation": 581.0 }, "geometry": { "type": "Point", "coordinates": [ 141.16, 42.49 ] } },
{ "type": "Feature", "properties": { "Name": "Kuwae ", "Country": "            Vanuatu          ", "Type": "            Caldera          ", "lat": -16.83, "lng": 168.54, "Elevation": -2.0 }, "geometry": { "type": "Point", "coordinates": [ 168.54, -16.83 ] } },
{ "type": "Feature", "properties": { "Name": "La Palma ", "Country": "            Spain          ", "Type": "            Stratovolcano          ", "lat": 28.57, "lng": -17.83, "Elevation": 2426.0 }, "geometry": { "type": "Point", "coordinates": [ -17.83, 28.57 ] } },
{ "type": "Feature", "properties": { "Name": "Lamington ", "Country": "            Papua New Guinea          ", "Type": "            Stratovolcano          ", "lat": -8.95, "lng": 148.15, "Elevation": 1680.0 }, "geometry": { "type": "Point", "coordinates": [ 148.15, -8.95 ] } },
{ "type": "Feature", "properties": { "Name": "Langila ", "Country": "            Papua New Guinea          ", "Type": "            Stratovolcano          ", "lat": -5.53, "lng": 148.42, "Elevation": 1330.0 }, "geometry": { "type": "Point", "coordinates": [ 148.42, -5.53 ] } },
{ "type": "Feature", "properties": { "Name": "Lanzarote ", "Country": "            Spain          ", "Type": "            Fissure vents          ", "lat": 29.03, "lng": -13.63, "Elevation": 670.0 }, "geometry": { "type": "Point", "coordinates": [ -13.63, 29.03 ] } },
{ "type": "Feature", "properties": { "Name": "Láscar ", "Country": "            Chile          ", "Type": "            Stratovolcano          ", "lat": -23.37, "lng": -67.73, "Elevation": 5592.0 }, "geometry": { "type": "Point", "coordinates": [ -67.73, -23.37 ] } },
{ "type": "Feature", "properties": { "Name": "Lereboleng ", "Country": "            Indonesia          ", "Type": "            Complex Volcano          ", "lat": -8.36, "lng": 122.84, "Elevation": 1117.0 }, "geometry": { "type": "Point", "coordinates": [ 122.84, -8.36 ] } },
{ "type": "Feature", "properties": { "Name": "Lewotobi ", "Country": "            Indonesia          ", "Type": "            Stratovolcano          ", "lat": -8.54, "lng": 122.78, "Elevation": 1703.0 }, "geometry": { "type": "Point", "coordinates": [ 122.78, -8.54 ] } },
{ "type": "Feature", "properties": { "Name": "Lewotolo ", "Country": "            Indonesia          ", "Type": "            Stratovolcano          ", "lat": -8.27, "lng": 123.51, "Elevation": 1423.0 }, "geometry": { "type": "Point", "coordinates": [ 123.51, -8.27 ] } },
{ "type": "Feature", "properties": { "Name": "Liamuiga ", "Country": "            St. Kitts and Nevis          ", "Type": "            Stratovolcano          ", "lat": 17.37, "lng": -62.8, "Elevation": 1156.0 }, "geometry": { "type": "Point", "coordinates": [ -62.8, 17.37 ] } },
{ "type": "Feature", "properties": { "Name": "Lipari ", "Country": "            Italy          ", "Type": "            Stratovolcano          ", "lat": 38.48, "lng": 14.95, "Elevation": 602.0 }, "geometry": { "type": "Point", "coordinates": [ 14.95, 38.48 ] } },
{ "type": "Feature", "properties": { "Name": "Little Sitkin ", "Country": "            United States          ", "Type": "            Stratovolcano          ", "lat": 51.95, "lng": 178.54, "Elevation": 1174.0 }, "geometry": { "type": "Point", "coordinates": [ 178.54, 51.95 ] } },
{ "type": "Feature", "properties": { "Name": "Loihi ", "Country": "            United States          ", "Type": "            Submarine          ", "lat": 18.92, "lng": -155.27, "Elevation": -975.0 }, "geometry": { "type": "Point", "coordinates": [ -155.27, 18.92 ] } },
{ "type": "Feature", "properties": { "Name": "Lokon-Empung ", "Country": "            Indonesia          ", "Type": "            Stratovolcano          ", "lat": 1.36, "lng": 124.79, "Elevation": 1580.0 }, "geometry": { "type": "Point", "coordinates": [ 124.79, 1.36 ] } },
{ "type": "Feature", "properties": { "Name": "Lolo ", "Country": "            Papua New Guinea          ", "Type": "            Stratovolcano          ", "lat": -5.47, "lng": 150.51, "Elevation": 805.0 }, "geometry": { "type": "Point", "coordinates": [ 150.51, -5.47 ] } },
{ "type": "Feature", "properties": { "Name": "Lolobau ", "Country": "            Papua New Guinea          ", "Type": "            Caldera          ", "lat": -4.92, "lng": 151.16, "Elevation": 858.0 }, "geometry": { "type": "Point", "coordinates": [ 151.16, -4.92 ] } },
{ "type": "Feature", "properties": { "Name": "Loloru ", "Country": "            Papua New Guinea          ", "Type": "            Stratovolcano          ", "lat": -6.52, "lng": 155.62, "Elevation": 1887.0 }, "geometry": { "type": "Point", "coordinates": [ 155.62, -6.52 ] } },
{ "type": "Feature", "properties": { "Name": "Long Island ", "Country": "            Papua New Guinea          ", "Type": "            Complex Volcano          ", "lat": -5.36, "lng": 147.12, "Elevation": 1280.0 }, "geometry": { "type": "Point", "coordinates": [ 147.12, -5.36 ] } },
{ "type": "Feature", "properties": { "Name": "Longonot ", "Country": "            Kenya          ", "Type": "            Stratovolcano          ", "lat": -0.91, "lng": 36.45, "Elevation": 2776.0 }, "geometry": { "type": "Point", "coordinates": [ 36.45, -0.91 ] } },
{ "type": "Feature", "properties": { "Name": "Lopevi ", "Country": "            Vanuatu          ", "Type": "            Stratovolcano          ", "lat": -16.51, "lng": 168.35, "Elevation": 1413.0 }, "geometry": { "type": "Point", "coordinates": [ 168.35, -16.51 ] } },
{ "type": "Feature", "properties": { "Name": "Maderas ", "Country": "            Nicaragua          ", "Type": "            Stratovolcano          ", "lat": 11.45, "lng": -85.52, "Elevation": 1394.0 }, "geometry": { "type": "Point", "coordinates": [ -85.52, 11.45 ] } },
{ "type": "Feature", "properties": { "Name": "Mageik ", "Country": "            United States          ", "Type": "            Stratovolcano          ", "lat": 58.2, "lng": 155.25, "Elevation": 2165.0 }, "geometry": { "type": "Point", "coordinates": [ 155.25, 58.2 ] } },
{ "type": "Feature", "properties": { "Name": "Mahawu ", "Country": "            Indonesia          ", "Type": "            Stratovolcano          ", "lat": 1.36, "lng": 124.86, "Elevation": 1324.0 }, "geometry": { "type": "Point", "coordinates": [ 124.86, 1.36 ] } },
{ "type": "Feature", "properties": { "Name": "Makian ", "Country": "            Indonesia          ", "Type": "            Stratovolcano          ", "lat": 0.32, "lng": 127.4, "Elevation": 1357.0 }, "geometry": { "type": "Point", "coordinates": [ 127.4, 0.32 ] } },
{ "type": "Feature", "properties": { "Name": "Maly Semiachik ", "Country": "            Russia          ", "Type": "            Caldera          ", "lat": 54.13, "lng": 159.67, "Elevation": 1560.0 }, "geometry": { "type": "Point", "coordinates": [ 159.67, 54.13 ] } },
{ "type": "Feature", "properties": { "Name": "Manam ", "Country": "            Papua New Guinea          ", "Type": "            Stratovolcano          ", "lat": -4.08, "lng": 145.04, "Elevation": 1807.0 }, "geometry": { "type": "Point", "coordinates": [ 145.04, -4.08 ] } },
{ "type": "Feature", "properties": { "Name": "Mariveles ", "Country": "            Philippines          ", "Type": "            Stratovolcano          ", "lat": 14.52, "lng": 120.47, "Elevation": 1388.0 }, "geometry": { "type": "Point", "coordinates": [ 120.47, 14.52 ] } },
{ "type": "Feature", "properties": { "Name": "Marsabit ", "Country": "            Kenya          ", "Type": "            Shield          ", "lat": 2.32, "lng": 37.97, "Elevation": 1707.0 }, "geometry": { "type": "Point", "coordinates": [ 37.97, 2.32 ] } },
{ "type": "Feature", "properties": { "Name": "Masaya ", "Country": "            Nicaragua          ", "Type": "            Caldera          ", "lat": 11.98, "lng": -86.16, "Elevation": 635.0 }, "geometry": { "type": "Point", "coordinates": [ -86.16, 11.98 ] } },
{ "type": "Feature", "properties": { "Name": "Mashkovtsev ", "Country": "            Russia          ", "Type": "            Stratovolcano          ", "lat": 51.1, "lng": 156.72, "Elevation": 503.0 }, "geometry": { "type": "Point", "coordinates": [ 156.72, 51.1 ] } },
{ "type": "Feature", "properties": { "Name": "Mashu ", "Country": "            Japan          ", "Type": "            Caldera          ", "lat": 43.57, "lng": 144.57, "Elevation": 855.0 }, "geometry": { "type": "Point", "coordinates": [ 144.57, 43.57 ] } },
{ "type": "Feature", "properties": { "Name": "Mauna Kea ", "Country": "            United States          ", "Type": "            Shield          ", "lat": 19.82, "lng": -155.47, "Elevation": 4205.0 }, "geometry": { "type": "Point", "coordinates": [ -155.47, 19.82 ] } },
{ "type": "Feature", "properties": { "Name": "Mauna Loa ", "Country": "            United States          ", "Type": "            Shield          ", "lat": 19.48, "lng": -155.61, "Elevation": 4170.0 }, "geometry": { "type": "Point", "coordinates": [ -155.61, 19.48 ] } },
{ "type": "Feature", "properties": { "Name": "Mayon ", "Country": "            Philippines          ", "Type": "            Stratovolcano          ", "lat": 13.26, "lng": 123.69, "Elevation": 2462.0 }, "geometry": { "type": "Point", "coordinates": [ 123.69, 13.26 ] } },
{ "type": "Feature", "properties": { "Name": "McDonald Islands ", "Country": "            Australia          ", "Type": "            Complex Volcano          ", "lat": -53.03, "lng": 72.6, "Elevation": 230.0 }, "geometry": { "type": "Point", "coordinates": [ 72.6, -53.03 ] } },
{ "type": "Feature", "properties": { "Name": "McLoughlin ", "Country": "            United States          ", "Type": "            Stratovolcano          ", "lat": 42.45, "lng": -122.32, "Elevation": 2894.0 }, "geometry": { "type": "Point", "coordinates": [ -122.32, 42.45 ] } },
{ "type": "Feature", "properties": { "Name": "Mega Basalt Field ", "Country": "EthiopiaKenya ", "Type": "            Pyroclastic Cone          ", "lat": 37.42, "lng": 4.08, "Elevation": 1067.0 }, "geometry": { "type": "Point", "coordinates": [ 4.08, 37.42 ] } },
{ "type": "Feature", "properties": { "Name": "Menan Buttes ", "Country": "            United States          ", "Type": "            Tuff Ring          ", "lat": 43.7, "lng": -111.96, "Elevation": 1713.0 }, "geometry": { "type": "Point", "coordinates": [ -111.96, 43.7 ] } },
{ "type": "Feature", "properties": { "Name": "Menengai ", "Country": "            Kenya          ", "Type": "            Shield          ", "lat": -0.2, "lng": 36.07, "Elevation": 2278.0 }, "geometry": { "type": "Point", "coordinates": [ 36.07, -0.2 ] } },
{ "type": "Feature", "properties": { "Name": "Merapi ", "Country": "            Indonesia          ", "Type": "            Stratovolcano          ", "lat": -7.54, "lng": 110.44, "Elevation": 2911.0 }, "geometry": { "type": "Point", "coordinates": [ 110.44, -7.54 ] } },
{ "type": "Feature", "properties": { "Name": "Merbabu ", "Country": "            Indonesia          ", "Type": "            Stratovolcano          ", "lat": -7.45, "lng": 110.43, "Elevation": 3145.0 }, "geometry": { "type": "Point", "coordinates": [ 110.43, -7.45 ] } },
{ "type": "Feature", "properties": { "Name": "Meru ", "Country": "            Tanzania          ", "Type": "            Stratovolcano          ", "lat": -3.25, "lng": 36.75, "Elevation": 4565.0 }, "geometry": { "type": "Point", "coordinates": [ 36.75, -3.25 ] } },
{ "type": "Feature", "properties": { "Name": "Methana ", "Country": "            Greece          ", "Type": "            Dome          ", "lat": 37.62, "lng": 23.34, "Elevation": 760.0 }, "geometry": { "type": "Point", "coordinates": [ 23.34, 37.62 ] } },
{ "type": "Feature", "properties": { "Name": "Metis Shoal ", "Country": "            Tonga          ", "Type": "            Submarine          ", "lat": -19.18, "lng": -174.87, "Elevation": 43.0 }, "geometry": { "type": "Point", "coordinates": [ -174.87, -19.18 ] } },
{ "type": "Feature", "properties": { "Name": "Michael ", "Country": "            United Kingdom          ", "Type": "            Stratovolcano          ", "lat": -57.78, "lng": -26.45, "Elevation": 990.0 }, "geometry": { "type": "Point", "coordinates": [ -26.45, -57.78 ] } },
{ "type": "Feature", "properties": { "Name": "Michoacan-Guanajuato ", "Country": "            Mexico          ", "Type": "            Cinder Cone          ", "lat": 19.85, "lng": -101.75, "Elevation": 3860.0 }, "geometry": { "type": "Point", "coordinates": [ -101.75, 19.85 ] } },
{ "type": "Feature", "properties": { "Name": "Mílos ", "Country": "            Greece          ", "Type": "            Stratovolcano          ", "lat": 36.7, "lng": 24.44, "Elevation": 751.0 }, "geometry": { "type": "Point", "coordinates": [ 24.44, 36.7 ] } },
{ "type": "Feature", "properties": { "Name": "Miyake-jima ", "Country": "            Japan          ", "Type": "            Stratovolcano          ", "lat": 34.08, "lng": 139.53, "Elevation": 815.0 }, "geometry": { "type": "Point", "coordinates": [ 139.53, 34.08 ] } },
{ "type": "Feature", "properties": { "Name": "Moffett ", "Country": "            United States          ", "Type": "            Stratovolcano          ", "lat": 51.94, "lng": -176.75, "Elevation": 1196.0 }, "geometry": { "type": "Point", "coordinates": [ -176.75, 51.94 ] } },
{ "type": "Feature", "properties": { "Name": "Mojanda ", "Country": "            Ecuador          ", "Type": "            Stratovolcano          ", "lat": 0.13, "lng": -78.27, "Elevation": 4263.0 }, "geometry": { "type": "Point", "coordinates": [ -78.27, 0.13 ] } },
{ "type": "Feature", "properties": { "Name": "Momotombo ", "Country": "            Nicaragua          ", "Type": "            Stratovolcano          ", "lat": 12.42, "lng": -86.54, "Elevation": 1297.0 }, "geometry": { "type": "Point", "coordinates": [ -86.54, 12.42 ] } },
{ "type": "Feature", "properties": { "Name": "Monaco Bank ", "Country": "            Portugal          ", "Type": "            Submarine          ", "lat": 37.6, "lng": -25.88, "Elevation": -197.0 }, "geometry": { "type": "Point", "coordinates": [ -25.88, 37.6 ] } },
{ "type": "Feature", "properties": { "Name": "Mono Lake Vol Field ", "Country": "            United States          ", "Type": "            Volcanic Field          ", "lat": 38.0, "lng": -119.03, "Elevation": 2121.0 }, "geometry": { "type": "Point", "coordinates": [ -119.03, 38.0 ] } },
{ "type": "Feature", "properties": { "Name": "Monowai Seamount ", "Country": "            New Zealand          ", "Type": "            Submarine          ", "lat": -25.89, "lng": -177.19, "Elevation": -132.0 }, "geometry": { "type": "Point", "coordinates": [ -177.19, -25.89 ] } },
{ "type": "Feature", "properties": { "Name": "Moti ", "Country": "            Indonesia          ", "Type": "            Stratovolcano          ", "lat": 0.45, "lng": 127.4, "Elevation": 950.0 }, "geometry": { "type": "Point", "coordinates": [ 127.4, 0.45 ] } },
{ "type": "Feature", "properties": { "Name": "Muria ", "Country": "            Indonesia          ", "Type": "            Stratovolcano          ", "lat": -6.62, "lng": 110.88, "Elevation": 1625.0 }, "geometry": { "type": "Point", "coordinates": [ 110.88, -6.62 ] } },
{ "type": "Feature", "properties": { "Name": "Nantai ", "Country": "            Japan          ", "Type": "            Stratovolcano          ", "lat": 36.76, "lng": 139.48, "Elevation": 2486.0 }, "geometry": { "type": "Point", "coordinates": [ 139.48, 36.76 ] } },
{ "type": "Feature", "properties": { "Name": "Nasu ", "Country": "            Japan          ", "Type": "            Stratovolcano          ", "lat": 37.12, "lng": 139.97, "Elevation": 1915.0 }, "geometry": { "type": "Point", "coordinates": [ 139.97, 37.12 ] } },
{ "type": "Feature", "properties": { "Name": "Navajo Volcanic Field ", "Country": "            United States          ", "Type": "            Volcanic Field          ", "lat": null, "lng": null, "Elevation": 2740.0 }, "geometry": { "type": "Point", "coordinates": null } },
{ "type": "Feature", "properties": { "Name": "Negro, Cerro ", "Country": "            Nicaragua          ", "Type": "            Cinder Cone          ", "lat": 12.51, "lng": -86.7, "Elevation": 728.0 }, "geometry": { "type": "Point", "coordinates": [ -86.7, 12.51 ] } },
{ "type": "Feature", "properties": { "Name": "Nemo Peak ", "Country": "            Russia          ", "Type": "            Caldera          ", "lat": 49.57, "lng": 154.81, "Elevation": 1018.0 }, "geometry": { "type": "Point", "coordinates": [ 154.81, 49.57 ] } },
{ "type": "Feature", "properties": { "Name": "Nevis Peak ", "Country": "            St. Kitts and Nevis          ", "Type": "            Stratovolcano          ", "lat": 17.15, "lng": -62.58, "Elevation": 985.0 }, "geometry": { "type": "Point", "coordinates": [ -62.58, 17.15 ] } },
{ "type": "Feature", "properties": { "Name": "Newberry ", "Country": "            United States          ", "Type": "            Shield          ", "lat": 43.72, "lng": -121.23, "Elevation": 2434.0 }, "geometry": { "type": "Point", "coordinates": [ -121.23, 43.72 ] } },
{ "type": "Feature", "properties": { "Name": "Newer Volcanics Province ", "Country": "            Australia          ", "Type": "            Shield          ", "lat": -37.77, "lng": 142.5, "Elevation": 1011.0 }, "geometry": { "type": "Point", "coordinates": [ 142.5, -37.77 ] } },
{ "type": "Feature", "properties": { "Name": "Ngauruhoe ", "Country": "            New Zealand          ", "Type": "            Stratovolcano          ", "lat": -39.13, "lng": 175.64, "Elevation": 1978.0 }, "geometry": { "type": "Point", "coordinates": [ 175.64, -39.13 ] } },
{ "type": "Feature", "properties": { "Name": "Nikko-Shirane ", "Country": "            Japan          ", "Type": "            Shield          ", "lat": 36.8, "lng": 139.38, "Elevation": 2578.0 }, "geometry": { "type": "Point", "coordinates": [ 139.38, 36.8 ] } },
{ "type": "Feature", "properties": { "Name": "Nipesotsu-Maruyama ", "Country": "            Japan          ", "Type": "            Stratovolcano          ", "lat": 43.45, "lng": 143.04, "Elevation": 2013.0 }, "geometry": { "type": "Point", "coordinates": [ 143.04, 43.45 ] } },
{ "type": "Feature", "properties": { "Name": "Nisyros ", "Country": "            Greece          ", "Type": "            Stratovolcano          ", "lat": 36.59, "lng": 27.16, "Elevation": 698.0 }, "geometry": { "type": "Point", "coordinates": [ 27.16, 36.59 ] } },
{ "type": "Feature", "properties": { "Name": "Nyambeni Hills ", "Country": "            Kenya          ", "Type": "            Shield          ", "lat": 0.23, "lng": 37.87, "Elevation": 750.0 }, "geometry": { "type": "Point", "coordinates": [ 37.87, 0.23 ] } },
{ "type": "Feature", "properties": { "Name": "Nyamuragira ", "Country": "            Democratic Republic of Congo          ", "Type": "            Shield          ", "lat": -1.41, "lng": 29.2, "Elevation": 3058.0 }, "geometry": { "type": "Point", "coordinates": [ 29.2, -1.41 ] } },
{ "type": "Feature", "properties": { "Name": "Nyiragongo ", "Country": "            Democratic Republic of Congo          ", "Type": "            Stratovolcano          ", "lat": -1.52, "lng": 29.25, "Elevation": 3470.0 }, "geometry": { "type": "Point", "coordinates": [ 29.25, -1.52 ] } },
{ "type": "Feature", "properties": { "Name": "Oahu ", "Country": "            United States          ", "Type": "            Shield          ", "lat": null, "lng": null, "Elevation": 1220.0 }, "geometry": { "type": "Point", "coordinates": null } },
{ "type": "Feature", "properties": { "Name": "Ojos del Salado ", "Country": "            Chile\/Argentina          ", "Type": "            Stratovolcano          ", "lat": -27.12, "lng": -68.55, "Elevation": 6887.0 }, "geometry": { "type": "Point", "coordinates": [ -68.55, -27.12 ] } },
{ "type": "Feature", "properties": { "Name": "Okataina ", "Country": "            New Zealand          ", "Type": "            Dome          ", "lat": -38.12, "lng": 176.5, "Elevation": 1111.0 }, "geometry": { "type": "Point", "coordinates": [ 176.5, -38.12 ] } },
{ "type": "Feature", "properties": { "Name": "Okmok ", "Country": "            United States          ", "Type": "            Shield          ", "lat": 53.43, "lng": -168.13, "Elevation": 1073.0 }, "geometry": { "type": "Point", "coordinates": [ -168.13, 53.43 ] } },
{ "type": "Feature", "properties": { "Name": "Oku Volcanic Field ", "Country": "            Cameroon          ", "Type": "            Stratovolcano          ", "lat": 6.25, "lng": 10.5, "Elevation": 3011.0 }, "geometry": { "type": "Point", "coordinates": [ 10.5, 6.25 ] } },
{ "type": "Feature", "properties": { "Name": "Ol Doinyo Lengai ", "Country": "            Tanzania          ", "Type": "            Stratovolcano          ", "lat": -2.76, "lng": 39.91, "Elevation": 2962.0 }, "geometry": { "type": "Point", "coordinates": [ 39.91, -2.76 ] } },
{ "type": "Feature", "properties": { "Name": "Opala ", "Country": "            Russia          ", "Type": "            Caldera          ", "lat": 52.54, "lng": 157.34, "Elevation": 1776.0 }, "geometry": { "type": "Point", "coordinates": [ 157.34, 52.54 ] } },
{ "type": "Feature", "properties": { "Name": "Oraefajokull ", "Country": "            Iceland          ", "Type": "            Stratovolcano          ", "lat": 64.0, "lng": -16.65, "Elevation": 2119.0 }, "geometry": { "type": "Point", "coordinates": [ -16.65, 64.0 ] } },
{ "type": "Feature", "properties": { "Name": "Oshima ", "Country": "            Japan          ", "Type": "            Stratovolcano          ", "lat": 34.72, "lng": 139.4, "Elevation": 764.0 }, "geometry": { "type": "Point", "coordinates": [ 139.4, 34.72 ] } },
{ "type": "Feature", "properties": { "Name": "Pacaya ", "Country": "            Guatemala          ", "Type": "            Complex Volcano          ", "lat": 14.38, "lng": -90.6, "Elevation": 2552.0 }, "geometry": { "type": "Point", "coordinates": [ -90.6, 14.38 ] } },
{ "type": "Feature", "properties": { "Name": "Pagan ", "Country": "            United States          ", "Type": "            Stratovolcano          ", "lat": 18.13, "lng": 145.8, "Elevation": 570.0 }, "geometry": { "type": "Point", "coordinates": [ 145.8, 18.13 ] } },
{ "type": "Feature", "properties": { "Name": "Pago ", "Country": "            Papua New Guinea          ", "Type": "            Caldera          ", "lat": -5.58, "lng": 150.52, "Elevation": 742.0 }, "geometry": { "type": "Point", "coordinates": [ 150.52, -5.58 ] } },
{ "type": "Feature", "properties": { "Name": "Papandayan ", "Country": "            Indonesia          ", "Type": "            Stratovolcano          ", "lat": -7.32, "lng": 107.73, "Elevation": 2665.0 }, "geometry": { "type": "Point", "coordinates": [ 107.73, -7.32 ] } },
{ "type": "Feature", "properties": { "Name": "Paricutin ", "Country": "            Mexico          ", "Type": "            Cinder Cone          ", "lat": 19.5, "lng": -102.2, "Elevation": 3170.0 }, "geometry": { "type": "Point", "coordinates": [ -102.2, 19.5 ] } },
{ "type": "Feature", "properties": { "Name": "Parinacota ", "Country": "            Chile\/Bolivia          ", "Type": "            Stratovolcano          ", "lat": -18.17, "lng": -69.15, "Elevation": 6348.0 }, "geometry": { "type": "Point", "coordinates": [ -69.15, -18.17 ] } },
{ "type": "Feature", "properties": { "Name": "Pauzhetka ", "Country": "            Russia          ", "Type": "            Dome          ", "lat": 51.45, "lng": 156.97, "Elevation": 1070.0 }, "geometry": { "type": "Point", "coordinates": [ 156.97, 51.45 ] } },
{ "type": "Feature", "properties": { "Name": "Pavlof ", "Country": "            United States          ", "Type": "            Stratovolcano          ", "lat": 55.42, "lng": -161.89, "Elevation": 2519.0 }, "geometry": { "type": "Point", "coordinates": [ -161.89, 55.42 ] } },
{ "type": "Feature", "properties": { "Name": "Pavlof Sister ", "Country": "            United States          ", "Type": "            Stratovolcano          ", "lat": 55.45, "lng": -161.84, "Elevation": 2142.0 }, "geometry": { "type": "Point", "coordinates": [ -161.84, 55.45 ] } },
{ "type": "Feature", "properties": { "Name": "Pelee ", "Country": "            France          ", "Type": "            Stratovolcano          ", "lat": 14.82, "lng": -61.17, "Elevation": 1397.0 }, "geometry": { "type": "Point", "coordinates": [ -61.17, 14.82 ] } },
{ "type": "Feature", "properties": { "Name": "Peuet Sague ", "Country": "            Indonesia          ", "Type": "            Complex Volcano          ", "lat": 4.91, "lng": 96.33, "Elevation": 2801.0 }, "geometry": { "type": "Point", "coordinates": [ 96.33, 4.91 ] } },
{ "type": "Feature", "properties": { "Name": "Pico ", "Country": "            Portugal          ", "Type": "            Stratovolcano          ", "lat": 38.47, "lng": -28.4, "Elevation": 2351.0 }, "geometry": { "type": "Point", "coordinates": [ -28.4, 38.47 ] } },
{ "type": "Feature", "properties": { "Name": "Pilas, Las ", "Country": "            Nicaragua          ", "Type": "            Stratovolcano          ", "lat": 11.54, "lng": -85.62, "Elevation": 1700.0 }, "geometry": { "type": "Point", "coordinates": [ -85.62, 11.54 ] } },
{ "type": "Feature", "properties": { "Name": "Pinacate ", "Country": "            Mexico          ", "Type": "            Cinder Cone          ", "lat": 31.77, "lng": -113.5, "Elevation": 1200.0 }, "geometry": { "type": "Point", "coordinates": [ -113.5, 31.77 ] } },
{ "type": "Feature", "properties": { "Name": "Pinatubo ", "Country": "            Phillippines          ", "Type": "            Stratovolcano          ", "lat": 15.13, "lng": 120.35, "Elevation": 1486.0 }, "geometry": { "type": "Point", "coordinates": [ 120.35, 15.13 ] } },
{ "type": "Feature", "properties": { "Name": "Pisgah Lava Field ", "Country": "            United States          ", "Type": "            Volcanic Field          ", "lat": 34.75, "lng": -116.63, "Elevation": 1495.0 }, "geometry": { "type": "Point", "coordinates": [ -116.63, 34.75 ] } },
{ "type": "Feature", "properties": { "Name": "Piton de la Fournaise ", "Country": "            France          ", "Type": "            Shield          ", "lat": -21.23, "lng": 55.71, "Elevation": 2631.0 }, "geometry": { "type": "Point", "coordinates": [ 55.71, -21.23 ] } },
{ "type": "Feature", "properties": { "Name": "Poas ", "Country": "            Costa Rica          ", "Type": "            Stratovolcano          ", "lat": 10.2, "lng": -84.23, "Elevation": 2708.0 }, "geometry": { "type": "Point", "coordinates": [ -84.23, 10.2 ] } },
{ "type": "Feature", "properties": { "Name": "Popocatepetl ", "Country": "            Mexico          ", "Type": "            Stratovolcano          ", "lat": 19.02, "lng": -98.62, "Elevation": 5246.0 }, "geometry": { "type": "Point", "coordinates": [ -98.62, 19.02 ] } },
{ "type": "Feature", "properties": { "Name": "Prevo Peak ", "Country": "            Russia          ", "Type": "            Stratovolcano          ", "lat": 47.02, "lng": 152.12, "Elevation": 1360.0 }, "geometry": { "type": "Point", "coordinates": [ 152.12, 47.02 ] } },
{ "type": "Feature", "properties": { "Name": "Purace ", "Country": "            Colombia          ", "Type": "            Stratovolcano          ", "lat": 2.32, "lng": -76.4, "Elevation": 4650.0 }, "geometry": { "type": "Point", "coordinates": [ -76.4, 2.32 ] } },
{ "type": "Feature", "properties": { "Name": "Quill, The ", "Country": "            Netherlands          ", "Type": "            Stratovolcano          ", "lat": 17.48, "lng": -62.96, "Elevation": 601.0 }, "geometry": { "type": "Point", "coordinates": [ -62.96, 17.48 ] } },
{ "type": "Feature", "properties": { "Name": "Rabaul ", "Country": "            Papua New Guinea          ", "Type": "            Shield          ", "lat": -4.27, "lng": 152.2, "Elevation": 688.0 }, "geometry": { "type": "Point", "coordinates": [ 152.2, -4.27 ] } },
{ "type": "Feature", "properties": { "Name": "Ragang ", "Country": "            Phillippines          ", "Type": "            Stratovolcano          ", "lat": 7.7, "lng": 124.5, "Elevation": 2815.0 }, "geometry": { "type": "Point", "coordinates": [ 124.5, 7.7 ] } },
{ "type": "Feature", "properties": { "Name": "Raikoke ", "Country": "            Russia          ", "Type": "            Stratovolcano          ", "lat": 48.29, "lng": 153.25, "Elevation": 551.0 }, "geometry": { "type": "Point", "coordinates": [ 153.25, 48.29 ] } },
{ "type": "Feature", "properties": { "Name": "Rainier ", "Country": "            United States          ", "Type": "            Stratovolcano          ", "lat": 46.85, "lng": -121.76, "Elevation": 4392.0 }, "geometry": { "type": "Point", "coordinates": [ -121.76, 46.85 ] } },
{ "type": "Feature", "properties": { "Name": "Rajabasa ", "Country": "            Indonesia          ", "Type": "            Stratovolcano          ", "lat": -5.78, "lng": 105.63, "Elevation": 1281.0 }, "geometry": { "type": "Point", "coordinates": [ 105.63, -5.78 ] } },
{ "type": "Feature", "properties": { "Name": "Raoul ", "Country": "            New Zealand          ", "Type": "            Stratovolcano          ", "lat": -29.27, "lng": -177.92, "Elevation": 516.0 }, "geometry": { "type": "Point", "coordinates": [ -177.92, -29.27 ] } },
{ "type": "Feature", "properties": { "Name": "Rasshua ", "Country": "            Russia          ", "Type": "            Stratovolcano          ", "lat": 47.77, "lng": 153.02, "Elevation": 956.0 }, "geometry": { "type": "Point", "coordinates": [ 153.02, 47.77 ] } },
{ "type": "Feature", "properties": { "Name": "Raung ", "Country": "            Indonesia          ", "Type": "            Stratovolcano          ", "lat": -8.13, "lng": 114.04, "Elevation": 3332.0 }, "geometry": { "type": "Point", "coordinates": [ 114.04, -8.13 ] } },
{ "type": "Feature", "properties": { "Name": "Rausu ", "Country": "            Japan          ", "Type": "            Stratovolcano          ", "lat": 44.07, "lng": 145.13, "Elevation": 1660.0 }, "geometry": { "type": "Point", "coordinates": [ 145.13, 44.07 ] } },
{ "type": "Feature", "properties": { "Name": "Redoubt ", "Country": "            United States          ", "Type": "            Stratovolcano          ", "lat": 60.49, "lng": -152.74, "Elevation": 3108.0 }, "geometry": { "type": "Point", "coordinates": [ -152.74, 60.49 ] } },
{ "type": "Feature", "properties": { "Name": "Reventador ", "Country": "            Ecuador          ", "Type": "            Stratovolcano          ", "lat": -0.08, "lng": -77.66, "Elevation": 3562.0 }, "geometry": { "type": "Point", "coordinates": [ -77.66, -0.08 ] } },
{ "type": "Feature", "properties": { "Name": "Rincon de la Vieja ", "Country": "            Costa Rica          ", "Type": "            Complex Volcano          ", "lat": 10.83, "lng": -85.32, "Elevation": 1916.0 }, "geometry": { "type": "Point", "coordinates": [ -85.32, 10.83 ] } },
{ "type": "Feature", "properties": { "Name": "Roundtop ", "Country": "            United States          ", "Type": "            Stratovolcano          ", "lat": 54.8, "lng": -163.59, "Elevation": 1871.0 }, "geometry": { "type": "Point", "coordinates": [ -163.59, 54.8 ] } },
{ "type": "Feature", "properties": { "Name": "Ruapehu ", "Country": "            New Zealand          ", "Type": "            Stratovolcano          ", "lat": -39.28, "lng": 175.57, "Elevation": 2797.0 }, "geometry": { "type": "Point", "coordinates": [ 175.57, -39.28 ] } },
{ "type": "Feature", "properties": { "Name": "Rudakov ", "Country": "            Russia          ", "Type": "            Stratovolcano          ", "lat": 45.88, "lng": 149.83, "Elevation": 542.0 }, "geometry": { "type": "Point", "coordinates": [ 149.83, 45.88 ] } },
{ "type": "Feature", "properties": { "Name": "Ruiz, Nevado del ", "Country": "            Colombia          ", "Type": "            Stratovolcano          ", "lat": 4.89, "lng": -75.32, "Elevation": 5321.0 }, "geometry": { "type": "Point", "coordinates": [ -75.32, 4.89 ] } },
{ "type": "Feature", "properties": { "Name": "Rumble IV ", "Country": "            New Zealand          ", "Type": "            Submarine          ", "lat": -36.13, "lng": 178.05, "Elevation": 500.0 }, "geometry": { "type": "Point", "coordinates": [ 178.05, -36.13 ] } },
{ "type": "Feature", "properties": { "Name": "Saba ", "Country": "            Netherlands          ", "Type": "            Stratovolcano          ", "lat": 17.63, "lng": -63.23, "Elevation": 887.0 }, "geometry": { "type": "Point", "coordinates": [ -63.23, 17.63 ] } },
{ "type": "Feature", "properties": { "Name": "Sabancaya ", "Country": "            Peru          ", "Type": "            Stratovolcano          ", "lat": -15.78, "lng": -71.85, "Elevation": 5967.0 }, "geometry": { "type": "Point", "coordinates": [ -71.85, -15.78 ] } },
{ "type": "Feature", "properties": { "Name": "Sakar ", "Country": "            Papua New Guinea          ", "Type": "            Stratovolcano          ", "lat": -5.41, "lng": 148.09, "Elevation": 992.0 }, "geometry": { "type": "Point", "coordinates": [ 148.09, -5.41 ] } },
{ "type": "Feature", "properties": { "Name": "Sakura-jima ", "Country": "            Japan          ", "Type": "            Stratovolcano          ", "lat": 31.59, "lng": 130.66, "Elevation": 1117.0 }, "geometry": { "type": "Point", "coordinates": [ 130.66, 31.59 ] } },
{ "type": "Feature", "properties": { "Name": "Salak ", "Country": "            Indonesia          ", "Type": "            Stratovolcano          ", "lat": -6.72, "lng": 106.73, "Elevation": 2211.0 }, "geometry": { "type": "Point", "coordinates": [ 106.73, -6.72 ] } },
{ "type": "Feature", "properties": { "Name": "San Cristobal ", "Country": "            Nicaragua          ", "Type": "            Stratovolcano          ", "lat": 12.7, "lng": -87.0, "Elevation": 1745.0 }, "geometry": { "type": "Point", "coordinates": [ -87.0, 12.7 ] } },
{ "type": "Feature", "properties": { "Name": "San Salvador ", "Country": "            El Salvador          ", "Type": "            Stratovolcano          ", "lat": 13.73, "lng": -89.29, "Elevation": 1893.0 }, "geometry": { "type": "Point", "coordinates": [ -89.29, 13.73 ] } },
{ "type": "Feature", "properties": { "Name": "San Vicente ", "Country": "            Cape Verde Islands          ", "Type": "            Stratovolcano          ", "lat": 16.9, "lng": -25.0, "Elevation": 697.0 }, "geometry": { "type": "Point", "coordinates": [ -25.0, 16.9 ] } },
{ "type": "Feature", "properties": { "Name": "Sanford ", "Country": "            United States          ", "Type": "            Shield          ", "lat": 62.22, "lng": -144.13, "Elevation": 4949.0 }, "geometry": { "type": "Point", "coordinates": [ -144.13, 62.22 ] } },
{ "type": "Feature", "properties": { "Name": "Sangay ", "Country": "            Ecuador          ", "Type": "            Stratovolcano          ", "lat": -2.0, "lng": -78.34, "Elevation": 5230.0 }, "geometry": { "type": "Point", "coordinates": [ -78.34, -2.0 ] } },
{ "type": "Feature", "properties": { "Name": "Santa Ana ", "Country": "            El Salvador          ", "Type": "            Stratovolcano          ", "lat": 13.85, "lng": -89.63, "Elevation": 2381.0 }, "geometry": { "type": "Point", "coordinates": [ -89.63, 13.85 ] } },
{ "type": "Feature", "properties": { "Name": "Santa Maria ", "Country": "            Guatemala          ", "Type": "            Stratovolcano          ", "lat": 14.76, "lng": -91.55, "Elevation": 3772.0 }, "geometry": { "type": "Point", "coordinates": [ -91.55, 14.76 ] } },
{ "type": "Feature", "properties": { "Name": "Santorini ", "Country": "            Greece          ", "Type": "            Shield          ", "lat": 36.4, "lng": 25.4, "Elevation": 367.0 }, "geometry": { "type": "Point", "coordinates": [ 25.4, 36.4 ] } },
{ "type": "Feature", "properties": { "Name": "Sarychev Peak ", "Country": "            Russia          ", "Type": "            Stratovolcano          ", "lat": 48.09, "lng": 153.2, "Elevation": 1496.0 }, "geometry": { "type": "Point", "coordinates": [ 153.2, 48.09 ] } },
{ "type": "Feature", "properties": { "Name": "Savo ", "Country": "            Solomon Islands          ", "Type": "            Stratovolcano          ", "lat": -9.13, "lng": 159.82, "Elevation": 485.0 }, "geometry": { "type": "Point", "coordinates": [ 159.82, -9.13 ] } },
{ "type": "Feature", "properties": { "Name": "Segula ", "Country": "            United States          ", "Type": "            Stratovolcano          ", "lat": 52.02, "lng": 178.14, "Elevation": 1160.0 }, "geometry": { "type": "Point", "coordinates": [ 178.14, 52.02 ] } },
{ "type": "Feature", "properties": { "Name": "Semeru ", "Country": "            Indonesia          ", "Type": "            Stratovolcano          ", "lat": -8.11, "lng": 112.92, "Elevation": 3676.0 }, "geometry": { "type": "Point", "coordinates": [ 112.92, -8.11 ] } },
{ "type": "Feature", "properties": { "Name": "Semisopochnoi ", "Country": "            United States          ", "Type": "            Stratovolcano          ", "lat": 51.93, "lng": 179.58, "Elevation": 1221.0 }, "geometry": { "type": "Point", "coordinates": [ 179.58, 51.93 ] } },
{ "type": "Feature", "properties": { "Name": "Sete Cidades ", "Country": "            Portugal          ", "Type": "            Stratovolcano          ", "lat": 37.87, "lng": -25.78, "Elevation": 856.0 }, "geometry": { "type": "Point", "coordinates": [ -25.78, 37.87 ] } },
{ "type": "Feature", "properties": { "Name": "Shasta ", "Country": "            United States          ", "Type": "            Stratovolcano          ", "lat": 41.41, "lng": -122.19, "Elevation": 4317.0 }, "geometry": { "type": "Point", "coordinates": [ -122.19, 41.41 ] } },
{ "type": "Feature", "properties": { "Name": "Sheveluch ", "Country": "            Russia          ", "Type": "            Stratovolcano          ", "lat": 56.65, "lng": 161.36, "Elevation": 3283.0 }, "geometry": { "type": "Point", "coordinates": [ 161.36, 56.65 ] } },
{ "type": "Feature", "properties": { "Name": "Shikotsu ", "Country": "            Japan          ", "Type": "            Caldera          ", "lat": 42.69, "lng": 141.38, "Elevation": 1320.0 }, "geometry": { "type": "Point", "coordinates": [ 141.38, 42.69 ] } },
{ "type": "Feature", "properties": { "Name": "Shiretoko-Iwo-zan ", "Country": "            Japan          ", "Type": "            Stratovolcano          ", "lat": 44.13, "lng": 145.17, "Elevation": 1563.0 }, "geometry": { "type": "Point", "coordinates": [ 145.17, 44.13 ] } },
{ "type": "Feature", "properties": { "Name": "Shishaldin ", "Country": "            United States          ", "Type": "            Stratovolcano          ", "lat": 54.76, "lng": -163.97, "Elevation": 2857.0 }, "geometry": { "type": "Point", "coordinates": [ -163.97, 54.76 ] } },
{ "type": "Feature", "properties": { "Name": "Sinarka ", "Country": "            Russia          ", "Type": "            Stratovolcano          ", "lat": 48.88, "lng": 154.18, "Elevation": 934.0 }, "geometry": { "type": "Point", "coordinates": [ 154.18, 48.88 ] } },
{ "type": "Feature", "properties": { "Name": "Smirnov ", "Country": "            Russia          ", "Type": "            Stratovolcano          ", "lat": 44.42, "lng": 146.14, "Elevation": 1189.0 }, "geometry": { "type": "Point", "coordinates": [ 146.14, 44.42 ] } },
{ "type": "Feature", "properties": { "Name": "Sollipulli ", "Country": "            Chile          ", "Type": "            Caldera          ", "lat": -38.97, "lng": -71.52, "Elevation": 2282.0 }, "geometry": { "type": "Point", "coordinates": [ -71.52, -38.97 ] } },
{ "type": "Feature", "properties": { "Name": "Soputan ", "Country": "            Indonesia          ", "Type": "            Stratovolcano          ", "lat": 1.11, "lng": 124.73, "Elevation": 1784.0 }, "geometry": { "type": "Point", "coordinates": [ 124.73, 1.11 ] } },
{ "type": "Feature", "properties": { "Name": "Soufriere Guadeloupe ", "Country": "            France          ", "Type": "            Stratovolcano          ", "lat": 16.05, "lng": -61.67, "Elevation": 1467.0 }, "geometry": { "type": "Point", "coordinates": [ -61.67, 16.05 ] } },
{ "type": "Feature", "properties": { "Name": "Soufrière Hills ", "Country": "            United Kingdom          ", "Type": "            Stratovolcano          ", "lat": 16.72, "lng": -62.18, "Elevation": 915.0 }, "geometry": { "type": "Point", "coordinates": [ -62.18, 16.72 ] } },
{ "type": "Feature", "properties": { "Name": "Soufrière St. Vincent ", "Country": "            St. Vincent          ", "Type": "            Stratovolcano          ", "lat": 13.33, "lng": -61.18, "Elevation": 1220.0 }, "geometry": { "type": "Point", "coordinates": [ -61.18, 13.33 ] } },
{ "type": "Feature", "properties": { "Name": "South Island ", "Country": "            Kenya          ", "Type": "", "lat": 2.63, "lng": 36.6, "Elevation": 800.0 }, "geometry": { "type": "Point", "coordinates": [ 36.6, 2.63 ] } },
{ "type": "Feature", "properties": { "Name": "SP Mountain ", "Country": "            United States          ", "Type": "            Cinder Cone          ", "lat": 35.6, "lng": -111.6, "Elevation": 2141.0 }, "geometry": { "type": "Point", "coordinates": [ -111.6, 35.6 ] } },
{ "type": "Feature", "properties": { "Name": "Spurr ", "Country": "            United States          ", "Type": "            Stratovolcano          ", "lat": 61.3, "lng": -152.25, "Elevation": 3374.0 }, "geometry": { "type": "Point", "coordinates": [ -152.25, 61.3 ] } },
{ "type": "Feature", "properties": { "Name": "Srednii ", "Country": "            Russia          ", "Type": "            Submarine          ", "lat": 47.6, "lng": 152.92, "Elevation": 36.0 }, "geometry": { "type": "Point", "coordinates": [ 152.92, 47.6 ] } },
{ "type": "Feature", "properties": { "Name": "Steller ", "Country": "            United States          ", "Type": "            Stratovolcano          ", "lat": 58.4, "lng": -154.4, "Elevation": 2272.0 }, "geometry": { "type": "Point", "coordinates": [ -154.4, 58.4 ] } },
{ "type": "Feature", "properties": { "Name": "Stromboli ", "Country": "            Italy          ", "Type": "            Stratovolcano          ", "lat": 38.79, "lng": 15.21, "Elevation": 924.0 }, "geometry": { "type": "Point", "coordinates": [ 15.21, 38.79 ] } },
{ "type": "Feature", "properties": { "Name": "Sumaco ", "Country": "            Ecuador          ", "Type": "            Stratovolcano          ", "lat": -0.54, "lng": -77.63, "Elevation": 3990.0 }, "geometry": { "type": "Point", "coordinates": [ -77.63, -0.54 ] } },
{ "type": "Feature", "properties": { "Name": "Sumbing ", "Country": "            Indonesia          ", "Type": "            Stratovolcano          ", "lat": -7.38, "lng": 110.07, "Elevation": 3371.0 }, "geometry": { "type": "Point", "coordinates": [ 110.07, -7.38 ] } },
{ "type": "Feature", "properties": { "Name": "Sundoro ", "Country": "            Indonesia          ", "Type": "            Stratovolcano          ", "lat": -7.3, "lng": 109.99, "Elevation": 3136.0 }, "geometry": { "type": "Point", "coordinates": [ 109.99, -7.3 ] } },
{ "type": "Feature", "properties": { "Name": "Sunset Craters ", "Country": "            United States          ", "Type": "            Cinder Cone          ", "lat": 35.37, "lng": -111.5, "Elevation": 2447.0 }, "geometry": { "type": "Point", "coordinates": [ -111.5, 35.37 ] } },
{ "type": "Feature", "properties": { "Name": "Suswa ", "Country": "            Kenya          ", "Type": "            Shield          ", "lat": -1.18, "lng": 36.35, "Elevation": 2356.0 }, "geometry": { "type": "Point", "coordinates": [ 36.35, -1.18 ] } },
{ "type": "Feature", "properties": { "Name": "Suwanose-jima ", "Country": "            Japan          ", "Type": "            Stratovolcano          ", "lat": 29.64, "lng": 129.72, "Elevation": 799.0 }, "geometry": { "type": "Point", "coordinates": [ 129.72, 29.64 ] } },
{ "type": "Feature", "properties": { "Name": "Taal ", "Country": "            Philippines          ", "Type": "            Caldera          ", "lat": 14.0, "lng": 120.99, "Elevation": 311.0 }, "geometry": { "type": "Point", "coordinates": [ 120.99, 14.0 ] } },
{ "type": "Feature", "properties": { "Name": "Talang ", "Country": "            Indonesia          ", "Type": "            Stratovolcano          ", "lat": -0.98, "lng": 100.68, "Elevation": 2597.0 }, "geometry": { "type": "Point", "coordinates": [ 100.68, -0.98 ] } },
{ "type": "Feature", "properties": { "Name": "Tambora ", "Country": "            Indonesia          ", "Type": "            Stratovolcano          ", "lat": -8.25, "lng": 118.0, "Elevation": 2850.0 }, "geometry": { "type": "Point", "coordinates": [ 118.0, -8.25 ] } },
{ "type": "Feature", "properties": { "Name": "Tambora ", "Country": "            Indonesia          ", "Type": "            Stratovolcano          ", "lat": -8.25, "lng": 118.0, "Elevation": 2850.0 },